{"type":"FeatureCollection","features":[{"type":"Feature","properties":{"nom":"Affoux","code":"69001","codeDepartement":"69","siren":"216900019","codeEpci":"200040566","codeRegion":"84","codesPostaux":["69170"],"population":395},"geometry":{"type":"Point","coordinates":[4.4116,45.8448]}},{"type":"Feature","properties":{"nom":"Aigueperse","code":"69002","codeDepartement":"69","siren":"216900027","codeEpci":"200067817","codeRegion":"84","codesPostaux":["69790"],"population":243},"geometry":{"type":"Point","coordinates":[4.4268,46.2822]}},{"type":"Feature","properties":{"nom":"Albigny-sur-Saône","code":"69003","codeDepartement":"69","siren":"216900035","codeEpci":"200046977","codeRegion":"84","codesPostaux":["69250"],"population":2991},"geometry":{"type":"Point","coordinates":[4.8284,45.8666]}},{"type":"Feature","properties":{"nom":"Alix","code":"69004","codeDepartement":"69","siren":"216900043","codeEpci":"200040574","codeRegion":"84","codesPostaux":["69380"],"population":766},"geometry":{"type":"Point","coordinates":[4.6534,45.9162]}},{"type":"Feature","properties":{"nom":"Ambérieux","code":"69005","codeDepartement":"69","siren":"216900050","codeEpci":"200040574","codeRegion":"84","codesPostaux":["69480"],"population":607},"geometry":{"type":"Point","coordinates":[4.7427,45.9264]}},{"type":"Feature","properties":{"nom":"Amplepuis","code":"69006","codeDepartement":"69","siren":"216900068","codeEpci":"200040566","codeRegion":"84","codesPostaux":["69550"],"population":4840},"geometry":{"type":"Point","coordinates":[4.317,45.966]}},{"type":"Feature","properties":{"nom":"Ampuis","code":"69007","codeDepartement":"69","siren":"216900076","codeEpci":"200077014","codeRegion":"84","codesPostaux":["69420"],"population":2751},"geometry":{"type":"Point","coordinates":[4.8079,45.5034]}},{"type":"Feature","properties":{"nom":"Ancy","code":"69008","codeDepartement":"69","siren":"216900084","codeEpci":"200040566","codeRegion":"84","codesPostaux":["69490"],"population":677},"geometry":{"type":"Point","coordinates":[4.5098,45.8362]}},{"type":"Feature","properties":{"nom":"Anse","code":"69009","codeDepartement":"69","siren":"216900092","codeEpci":"200040574","codeRegion":"84","codesPostaux":["69480"],"population":7947},"geometry":{"type":"Point","coordinates":[4.7049,45.9451]}},{"type":"Feature","properties":{"nom":"L'Arbresle","code":"69010","codeDepartement":"69","siren":"216900100","codeEpci":"246900625","codeRegion":"84","codesPostaux":["69210"],"population":6453},"geometry":{"type":"Point","coordinates":[4.6102,45.8347]}},{"type":"Feature","properties":{"nom":"Les Ardillats","code":"69012","codeDepartement":"69","siren":"216900126","codeEpci":"200067817","codeRegion":"84","codesPostaux":["69430"],"population":603},"geometry":{"type":"Point","coordinates":[4.5293,46.1885]}},{"type":"Feature","properties":{"nom":"Arnas","code":"69013","codeDepartement":"69","siren":"216900134","codeEpci":"200040590","codeRegion":"84","codesPostaux":["69400"],"population":4215},"geometry":{"type":"Point","coordinates":[4.7102,46.0194]}},{"type":"Feature","properties":{"nom":"Aveize","code":"69014","codeDepartement":"69","siren":"216900142","codeEpci":"200066587","codeRegion":"84","codesPostaux":["69610"],"population":1115},"geometry":{"type":"Point","coordinates":[4.4744,45.6799]}},{"type":"Feature","properties":{"nom":"Azolette","code":"69016","codeDepartement":"69","siren":"216900167","codeEpci":"200067817","codeRegion":"84","codesPostaux":["69790"],"population":122},"geometry":{"type":"Point","coordinates":[4.4146,46.1917]}},{"type":"Feature","properties":{"nom":"Bagnols","code":"69017","codeDepartement":"69","siren":"216900175","codeEpci":"200040574","codeRegion":"84","codesPostaux":["69620"],"population":752},"geometry":{"type":"Point","coordinates":[4.6205,45.9104]}},{"type":"Feature","properties":{"nom":"Beaujeu","code":"69018","codeDepartement":"69","siren":"216900183","codeEpci":"200067817","codeRegion":"84","codesPostaux":["69430"],"population":2123},"geometry":{"type":"Point","coordinates":[4.5802,46.1585]}},{"type":"Feature","properties":{"nom":"Belleville-en-Beaujolais","code":"69019","codeDepartement":"69","siren":"200084416","codeEpci":"200067817","codeRegion":"84","codesPostaux":["69220"],"population":13542},"geometry":{"type":"Point","coordinates":[4.7291,46.1145]}},{"type":"Feature","properties":{"nom":"Belmont-d'Azergues","code":"69020","codeDepartement":"69","siren":"216900209","codeEpci":"200040574","codeRegion":"84","codesPostaux":["69380"],"population":705},"geometry":{"type":"Point","coordinates":[4.6685,45.8673]}},{"type":"Feature","properties":{"nom":"Bessenay","code":"69021","codeDepartement":"69","siren":"216900217","codeEpci":"246900625","codeRegion":"84","codesPostaux":["69690"],"population":2348},"geometry":{"type":"Point","coordinates":[4.5484,45.7712]}},{"type":"Feature","properties":{"nom":"Bibost","code":"69022","codeDepartement":"69","siren":"216900225","codeEpci":"246900625","codeRegion":"84","codesPostaux":["69690"],"population":542},"geometry":{"type":"Point","coordinates":[4.5494,45.7976]}},{"type":"Feature","properties":{"nom":"Blacé","code":"69023","codeDepartement":"69","siren":"216900233","codeEpci":"200040590","codeRegion":"84","codesPostaux":["69460"],"population":1669},"geometry":{"type":"Point","coordinates":[4.6308,46.0364]}},{"type":"Feature","properties":{"nom":"Val d'Oingt","code":"69024","codeDepartement":"69","siren":"200065274","codeEpci":"200040574","codeRegion":"84","codesPostaux":["69620"],"population":4155},"geometry":{"type":"Point","coordinates":[4.5668,45.9386]}},{"type":"Feature","properties":{"nom":"Le Breuil","code":"69026","codeDepartement":"69","siren":"216900266","codeEpci":"200040574","codeRegion":"84","codesPostaux":["69620"],"population":535},"geometry":{"type":"Point","coordinates":[4.5889,45.8909]}},{"type":"Feature","properties":{"nom":"Brignais","code":"69027","codeDepartement":"69","siren":"216900274","codeEpci":"246900757","codeRegion":"84","codesPostaux":["69530"],"population":12388},"geometry":{"type":"Point","coordinates":[4.7527,45.6751]}},{"type":"Feature","properties":{"nom":"Brindas","code":"69028","codeDepartement":"69","siren":"216900282","codeEpci":"246900724","codeRegion":"84","codesPostaux":["69126"],"population":6661},"geometry":{"type":"Point","coordinates":[4.703,45.7183]}},{"type":"Feature","properties":{"nom":"Bron","code":"69029","codeDepartement":"69","siren":"216900290","codeEpci":"200046977","codeRegion":"84","codesPostaux":["69500"],"population":43049},"geometry":{"type":"Point","coordinates":[4.9116,45.7355]}},{"type":"Feature","properties":{"nom":"Brullioles","code":"69030","codeDepartement":"69","siren":"216900308","codeEpci":"200066587","codeRegion":"84","codesPostaux":["69690"],"population":826},"geometry":{"type":"Point","coordinates":[4.49,45.7617]}},{"type":"Feature","properties":{"nom":"Brussieu","code":"69031","codeDepartement":"69","siren":"216900316","codeEpci":"200066587","codeRegion":"84","codesPostaux":["69690"],"population":1376},"geometry":{"type":"Point","coordinates":[4.5201,45.745]}},{"type":"Feature","properties":{"nom":"Bully","code":"69032","codeDepartement":"69","siren":"216900324","codeEpci":"246900625","codeRegion":"84","codesPostaux":["69210"],"population":2076},"geometry":{"type":"Point","coordinates":[4.5786,45.8595]}},{"type":"Feature","properties":{"nom":"Cailloux-sur-Fontaines","code":"69033","codeDepartement":"69","siren":"216900332","codeEpci":"200046977","codeRegion":"84","codesPostaux":["69270"],"population":2937},"geometry":{"type":"Point","coordinates":[4.8817,45.8592]}},{"type":"Feature","properties":{"nom":"Caluire-et-Cuire","code":"69034","codeDepartement":"69","siren":"216900340","codeEpci":"200046977","codeRegion":"84","codesPostaux":["69300"],"population":43572},"geometry":{"type":"Point","coordinates":[4.8494,45.7986]}},{"type":"Feature","properties":{"nom":"Cenves","code":"69035","codeDepartement":"69","siren":"216900357","codeEpci":"200067817","codeRegion":"84","codesPostaux":["69840"],"population":376},"geometry":{"type":"Point","coordinates":[4.6632,46.2801]}},{"type":"Feature","properties":{"nom":"Cercié","code":"69036","codeDepartement":"69","siren":"216900365","codeEpci":"200067817","codeRegion":"84","codesPostaux":["69220"],"population":1138},"geometry":{"type":"Point","coordinates":[4.6702,46.1251]}},{"type":"Feature","properties":{"nom":"Chambost-Allières","code":"69037","codeDepartement":"69","siren":"216900373","codeEpci":"200040566","codeRegion":"84","codesPostaux":["69870"],"population":831},"geometry":{"type":"Point","coordinates":[4.509,46.017]}},{"type":"Feature","properties":{"nom":"Chambost-Longessaigne","code":"69038","codeDepartement":"69","siren":"216900381","codeEpci":"200066587","codeRegion":"84","codesPostaux":["69770"],"population":919},"geometry":{"type":"Point","coordinates":[4.3784,45.778]}},{"type":"Feature","properties":{"nom":"Chamelet","code":"69039","codeDepartement":"69","siren":"216900399","codeEpci":"200040574","codeRegion":"84","codesPostaux":["69620"],"population":700},"geometry":{"type":"Point","coordinates":[4.4973,45.9829]}},{"type":"Feature","properties":{"nom":"Champagne-au-Mont-d'Or","code":"69040","codeDepartement":"69","siren":"216900407","codeEpci":"200046977","codeRegion":"84","codesPostaux":["69410"],"population":5936},"geometry":{"type":"Point","coordinates":[4.7864,45.8006]}},{"type":"Feature","properties":{"nom":"La Chapelle-sur-Coise","code":"69042","codeDepartement":"69","siren":"216900423","codeEpci":"200066587","codeRegion":"84","codesPostaux":["69590"],"population":568},"geometry":{"type":"Point","coordinates":[4.4959,45.6513]}},{"type":"Feature","properties":{"nom":"Chaponost","code":"69043","codeDepartement":"69","siren":"216900431","codeEpci":"246900757","codeRegion":"84","codesPostaux":["69630"],"population":9052},"geometry":{"type":"Point","coordinates":[4.7452,45.7089]}},{"type":"Feature","properties":{"nom":"Charbonnières-les-Bains","code":"69044","codeDepartement":"69","siren":"216900449","codeEpci":"200046977","codeRegion":"84","codesPostaux":["69260"],"population":5311},"geometry":{"type":"Point","coordinates":[4.743,45.7792]}},{"type":"Feature","properties":{"nom":"Charentay","code":"69045","codeDepartement":"69","siren":"216900456","codeEpci":"200067817","codeRegion":"84","codesPostaux":["69220"],"population":1265},"geometry":{"type":"Point","coordinates":[4.6926,46.0814]}},{"type":"Feature","properties":{"nom":"Charly","code":"69046","codeDepartement":"69","siren":"216900464","codeEpci":"200046977","codeRegion":"84","codesPostaux":["69390"],"population":4606},"geometry":{"type":"Point","coordinates":[4.7871,45.6527]}},{"type":"Feature","properties":{"nom":"Charnay","code":"69047","codeDepartement":"69","siren":"216900472","codeEpci":"200040574","codeRegion":"84","codesPostaux":["69380"],"population":1039},"geometry":{"type":"Point","coordinates":[4.6602,45.8876]}},{"type":"Feature","properties":{"nom":"Chasselay","code":"69049","codeDepartement":"69","siren":"216900498","codeEpci":"200040574","codeRegion":"84","codesPostaux":["69380"],"population":2828},"geometry":{"type":"Point","coordinates":[4.7699,45.8733]}},{"type":"Feature","properties":{"nom":"Châtillon","code":"69050","codeDepartement":"69","siren":"216900506","codeEpci":"200040574","codeRegion":"84","codesPostaux":["69380"],"population":2115},"geometry":{"type":"Point","coordinates":[4.6487,45.872]}},{"type":"Feature","properties":{"nom":"Chaussan","code":"69051","codeDepartement":"69","siren":"216900514","codeEpci":"246900740","codeRegion":"84","codesPostaux":["69440"],"population":1208},"geometry":{"type":"Point","coordinates":[4.6332,45.6387]}},{"type":"Feature","properties":{"nom":"Chazay-d'Azergues","code":"69052","codeDepartement":"69","siren":"216900522","codeEpci":"200040574","codeRegion":"84","codesPostaux":["69380"],"population":4164},"geometry":{"type":"Point","coordinates":[4.71,45.8743]}},{"type":"Feature","properties":{"nom":"Chénas","code":"69053","codeDepartement":"69","siren":"216900530","codeEpci":"200067817","codeRegion":"84","codesPostaux":["69840"],"population":538},"geometry":{"type":"Point","coordinates":[4.7069,46.2142]}},{"type":"Feature","properties":{"nom":"Chénelette","code":"69054","codeDepartement":"69","siren":"216900548","codeEpci":"200040566","codeRegion":"84","codesPostaux":["69430"],"population":361},"geometry":{"type":"Point","coordinates":[4.4895,46.1707]}},{"type":"Feature","properties":{"nom":"Les Chères","code":"69055","codeDepartement":"69","siren":"216900555","codeEpci":"200040574","codeRegion":"84","codesPostaux":["69380"],"population":1506},"geometry":{"type":"Point","coordinates":[4.7454,45.8948]}},{"type":"Feature","properties":{"nom":"Chessy","code":"69056","codeDepartement":"69","siren":"216900563","codeEpci":"200040574","codeRegion":"84","codesPostaux":["69380"],"population":2069},"geometry":{"type":"Point","coordinates":[4.6168,45.8914]}},{"type":"Feature","properties":{"nom":"Chevinay","code":"69057","codeDepartement":"69","siren":"216900571","codeEpci":"246900625","codeRegion":"84","codesPostaux":["69210"],"population":587},"geometry":{"type":"Point","coordinates":[4.5988,45.7767]}},{"type":"Feature","properties":{"nom":"Chiroubles","code":"69058","codeDepartement":"69","siren":"216900589","codeEpci":"200067817","codeRegion":"84","codesPostaux":["69115"],"population":398},"geometry":{"type":"Point","coordinates":[4.6495,46.1853]}},{"type":"Feature","properties":{"nom":"Civrieux-d'Azergues","code":"69059","codeDepartement":"69","siren":"216900597","codeEpci":"200040574","codeRegion":"84","codesPostaux":["69380"],"population":1591},"geometry":{"type":"Point","coordinates":[4.7121,45.8573]}},{"type":"Feature","properties":{"nom":"Claveisolles","code":"69060","codeDepartement":"69","siren":"216900605","codeEpci":"200040566","codeRegion":"84","codesPostaux":["69870"],"population":564},"geometry":{"type":"Point","coordinates":[4.5095,46.0966]}},{"type":"Feature","properties":{"nom":"Cogny","code":"69061","codeDepartement":"69","siren":"216900613","codeEpci":"200040590","codeRegion":"84","codesPostaux":["69640"],"population":1204},"geometry":{"type":"Point","coordinates":[4.6012,45.9885]}},{"type":"Feature","properties":{"nom":"Coise","code":"69062","codeDepartement":"69","siren":"216900621","codeEpci":"200066587","codeRegion":"84","codesPostaux":["69590"],"population":791},"geometry":{"type":"Point","coordinates":[4.4665,45.6133]}},{"type":"Feature","properties":{"nom":"Collonges-au-Mont-d'Or","code":"69063","codeDepartement":"69","siren":"216900639","codeEpci":"200046977","codeRegion":"84","codesPostaux":["69660"],"population":4517},"geometry":{"type":"Point","coordinates":[4.8425,45.8188]}},{"type":"Feature","properties":{"nom":"Condrieu","code":"69064","codeDepartement":"69","siren":"216900647","codeEpci":"200077014","codeRegion":"84","codesPostaux":["69420"],"population":3933},"geometry":{"type":"Point","coordinates":[4.7516,45.4748]}},{"type":"Feature","properties":{"nom":"Corcelles-en-Beaujolais","code":"69065","codeDepartement":"69","siren":"216900654","codeEpci":"200067817","codeRegion":"84","codesPostaux":["69220"],"population":984},"geometry":{"type":"Point","coordinates":[4.7254,46.1538]}},{"type":"Feature","properties":{"nom":"Cours","code":"69066","codeDepartement":"69","siren":"200056133","codeEpci":"200040566","codeRegion":"84","codesPostaux":["69470"],"population":4352},"geometry":{"type":"Point","coordinates":[4.3445,46.0968]}},{"type":"Feature","properties":{"nom":"Courzieu","code":"69067","codeDepartement":"69","siren":"216900670","codeEpci":"246900625","codeRegion":"84","codesPostaux":["69690"],"population":1172},"geometry":{"type":"Point","coordinates":[4.5695,45.7451]}},{"type":"Feature","properties":{"nom":"Couzon-au-Mont-d'Or","code":"69068","codeDepartement":"69","siren":"216900688","codeEpci":"200046977","codeRegion":"84","codesPostaux":["69270"],"population":2452},"geometry":{"type":"Point","coordinates":[4.8214,45.8479]}},{"type":"Feature","properties":{"nom":"Craponne","code":"69069","codeDepartement":"69","siren":"216900696","codeEpci":"200046977","codeRegion":"84","codesPostaux":["69290"],"population":11903},"geometry":{"type":"Point","coordinates":[4.7294,45.7456]}},{"type":"Feature","properties":{"nom":"Cublize","code":"69070","codeDepartement":"69","siren":"216900704","codeEpci":"200040566","codeRegion":"84","codesPostaux":["69550"],"population":1327},"geometry":{"type":"Point","coordinates":[4.3921,46.0244]}},{"type":"Feature","properties":{"nom":"Curis-au-Mont-d'Or","code":"69071","codeDepartement":"69","siren":"216900712","codeEpci":"200046977","codeRegion":"84","codesPostaux":["69250"],"population":1179},"geometry":{"type":"Point","coordinates":[4.8201,45.8682]}},{"type":"Feature","properties":{"nom":"Dardilly","code":"69072","codeDepartement":"69","siren":"216900720","codeEpci":"200046977","codeRegion":"84","codesPostaux":["69570"],"population":8828},"geometry":{"type":"Point","coordinates":[4.7466,45.8133]}},{"type":"Feature","properties":{"nom":"Denicé","code":"69074","codeDepartement":"69","siren":"216900746","codeEpci":"200040590","codeRegion":"84","codesPostaux":["69640"],"population":1564},"geometry":{"type":"Point","coordinates":[4.6503,46.0051]}},{"type":"Feature","properties":{"nom":"Dième","code":"69075","codeDepartement":"69","siren":"216900753","codeEpci":"200040566","codeRegion":"84","codesPostaux":["69170"],"population":194},"geometry":{"type":"Point","coordinates":[4.4584,45.9615]}},{"type":"Feature","properties":{"nom":"Dommartin","code":"69076","codeDepartement":"69","siren":"216900761","codeEpci":"246900625","codeRegion":"84","codesPostaux":["69380"],"population":2519},"geometry":{"type":"Point","coordinates":[4.7122,45.8372]}},{"type":"Feature","properties":{"nom":"Dracé","code":"69077","codeDepartement":"69","siren":"216900779","codeEpci":"200067817","codeRegion":"84","codesPostaux":["69220"],"population":1106},"geometry":{"type":"Point","coordinates":[4.773,46.154]}},{"type":"Feature","properties":{"nom":"Duerne","code":"69078","codeDepartement":"69","siren":"216900787","codeEpci":"200066587","codeRegion":"84","codesPostaux":["69850"],"population":840},"geometry":{"type":"Point","coordinates":[4.5273,45.677]}},{"type":"Feature","properties":{"nom":"Échalas","code":"69080","codeDepartement":"69","siren":"216900803","codeEpci":"200077014","codeRegion":"84","codesPostaux":["69700"],"population":1927},"geometry":{"type":"Point","coordinates":[4.7294,45.5501]}},{"type":"Feature","properties":{"nom":"Écully","code":"69081","codeDepartement":"69","siren":"216900811","codeEpci":"200046977","codeRegion":"84","codesPostaux":["69130"],"population":18361},"geometry":{"type":"Point","coordinates":[4.7737,45.7822]}},{"type":"Feature","properties":{"nom":"Émeringes","code":"69082","codeDepartement":"69","siren":"216900829","codeEpci":"200067817","codeRegion":"84","codesPostaux":["69840"],"population":281},"geometry":{"type":"Point","coordinates":[4.6754,46.224]}},{"type":"Feature","properties":{"nom":"Éveux","code":"69083","codeDepartement":"69","siren":"216900837","codeEpci":"246900625","codeRegion":"84","codesPostaux":["69210"],"population":1169},"geometry":{"type":"Point","coordinates":[4.6223,45.8256]}},{"type":"Feature","properties":{"nom":"Fleurie","code":"69084","codeDepartement":"69","siren":"216900845","codeEpci":"200067817","codeRegion":"84","codesPostaux":["69820"],"population":1320},"geometry":{"type":"Point","coordinates":[4.6942,46.1953]}},{"type":"Feature","properties":{"nom":"Fleurieu-sur-Saône","code":"69085","codeDepartement":"69","siren":"216900852","codeEpci":"200046977","codeRegion":"84","codesPostaux":["69250"],"population":1501},"geometry":{"type":"Point","coordinates":[4.8566,45.8582]}},{"type":"Feature","properties":{"nom":"Fleurieux-sur-l'Arbresle","code":"69086","codeDepartement":"69","siren":"216900860","codeEpci":"246900625","codeRegion":"84","codesPostaux":["69210"],"population":2287},"geometry":{"type":"Point","coordinates":[4.6484,45.8406]}},{"type":"Feature","properties":{"nom":"Fontaines-Saint-Martin","code":"69087","codeDepartement":"69","siren":"216900878","codeEpci":"200046977","codeRegion":"84","codesPostaux":["69270"],"population":3043},"geometry":{"type":"Point","coordinates":[4.8521,45.8445]}},{"type":"Feature","properties":{"nom":"Fontaines-sur-Saône","code":"69088","codeDepartement":"69","siren":"216900886","codeEpci":"200046977","codeRegion":"84","codesPostaux":["69270"],"population":7047},"geometry":{"type":"Point","coordinates":[4.8537,45.8268]}},{"type":"Feature","properties":{"nom":"Francheville","code":"69089","codeDepartement":"69","siren":"216900894","codeEpci":"200046977","codeRegion":"84","codesPostaux":["69340"],"population":15204},"geometry":{"type":"Point","coordinates":[4.7537,45.7386]}},{"type":"Feature","properties":{"nom":"Frontenas","code":"69090","codeDepartement":"69","siren":"216900902","codeEpci":"200040574","codeRegion":"84","codesPostaux":["69620"],"population":873},"geometry":{"type":"Point","coordinates":[4.632,45.9186]}},{"type":"Feature","properties":{"nom":"Givors","code":"69091","codeDepartement":"69","siren":"216900910","codeEpci":"200046977","codeRegion":"84","codesPostaux":["69700"],"population":20654},"geometry":{"type":"Point","coordinates":[4.7561,45.5845]}},{"type":"Feature","properties":{"nom":"Gleizé","code":"69092","codeDepartement":"69","siren":"216900928","codeEpci":"200040590","codeRegion":"84","codesPostaux":["69400"],"population":7614},"geometry":{"type":"Point","coordinates":[4.6883,45.9915]}},{"type":"Feature","properties":{"nom":"Grandris","code":"69093","codeDepartement":"69","siren":"216900936","codeEpci":"200040566","codeRegion":"84","codesPostaux":["69870"],"population":1198},"geometry":{"type":"Point","coordinates":[4.4599,46.034]}},{"type":"Feature","properties":{"nom":"Grézieu-la-Varenne","code":"69094","codeDepartement":"69","siren":"216900944","codeEpci":"246900724","codeRegion":"84","codesPostaux":["69290"],"population":6094},"geometry":{"type":"Point","coordinates":[4.6799,45.7469]}},{"type":"Feature","properties":{"nom":"Grézieu-le-Marché","code":"69095","codeDepartement":"69","siren":"216900951","codeEpci":"200066587","codeRegion":"84","codesPostaux":["69610"],"population":829},"geometry":{"type":"Point","coordinates":[4.4243,45.661]}},{"type":"Feature","properties":{"nom":"Grigny","code":"69096","codeDepartement":"69","siren":"216900969","codeEpci":"200046977","codeRegion":"84","codesPostaux":["69520"],"population":9851},"geometry":{"type":"Point","coordinates":[4.7858,45.6104]}},{"type":"Feature","properties":{"nom":"Les Haies","code":"69097","codeDepartement":"69","siren":"216900977","codeEpci":"200077014","codeRegion":"84","codesPostaux":["69420"],"population":756},"geometry":{"type":"Point","coordinates":[4.7401,45.5122]}},{"type":"Feature","properties":{"nom":"Les Halles","code":"69098","codeDepartement":"69","siren":"216900985","codeEpci":"200066587","codeRegion":"84","codesPostaux":["69610"],"population":488},"geometry":{"type":"Point","coordinates":[4.4345,45.7175]}},{"type":"Feature","properties":{"nom":"Haute-Rivoire","code":"69099","codeDepartement":"69","siren":"216900993","codeEpci":"200066587","codeRegion":"84","codesPostaux":["69610"],"population":1431},"geometry":{"type":"Point","coordinates":[4.4053,45.7172]}},{"type":"Feature","properties":{"nom":"Irigny","code":"69100","codeDepartement":"69","siren":"216901009","codeEpci":"200046977","codeRegion":"84","codesPostaux":["69540"],"population":8867},"geometry":{"type":"Point","coordinates":[4.8143,45.6747]}},{"type":"Feature","properties":{"nom":"Joux","code":"69102","codeDepartement":"69","siren":"216901025","codeEpci":"200040566","codeRegion":"84","codesPostaux":["69170"],"population":751},"geometry":{"type":"Point","coordinates":[4.368,45.8895]}},{"type":"Feature","properties":{"nom":"Juliénas","code":"69103","codeDepartement":"69","siren":"216901033","codeEpci":"200067817","codeRegion":"84","codesPostaux":["69840"],"population":885},"geometry":{"type":"Point","coordinates":[4.7052,46.2473]}},{"type":"Feature","properties":{"nom":"Jullié","code":"69104","codeDepartement":"69","siren":"216901041","codeEpci":"200067817","codeRegion":"84","codesPostaux":["69840"],"population":475},"geometry":{"type":"Point","coordinates":[4.6632,46.244]}},{"type":"Feature","properties":{"nom":"Lacenas","code":"69105","codeDepartement":"69","siren":"216901058","codeEpci":"200040590","codeRegion":"84","codesPostaux":["69640"],"population":1027},"geometry":{"type":"Point","coordinates":[4.6447,45.9867]}},{"type":"Feature","properties":{"nom":"Lachassagne","code":"69106","codeDepartement":"69","siren":"216901066","codeEpci":"200040574","codeRegion":"84","codesPostaux":["69480"],"population":1264},"geometry":{"type":"Point","coordinates":[4.6779,45.9264]}},{"type":"Feature","properties":{"nom":"Lamure-sur-Azergues","code":"69107","codeDepartement":"69","siren":"216901074","codeEpci":"200040566","codeRegion":"84","codesPostaux":["69870"],"population":1055},"geometry":{"type":"Point","coordinates":[4.5088,46.053]}},{"type":"Feature","properties":{"nom":"Lancié","code":"69108","codeDepartement":"69","siren":"216901082","codeEpci":"200067817","codeRegion":"84","codesPostaux":["69220"],"population":1062},"geometry":{"type":"Point","coordinates":[4.7295,46.1739]}},{"type":"Feature","properties":{"nom":"Lantignié","code":"69109","codeDepartement":"69","siren":"216901090","codeEpci":"200067817","codeRegion":"84","codesPostaux":["69430"],"population":854},"geometry":{"type":"Point","coordinates":[4.6174,46.1584]}},{"type":"Feature","properties":{"nom":"Larajasse","code":"69110","codeDepartement":"69","siren":"216901108","codeEpci":"200066587","codeRegion":"84","codesPostaux":["69590"],"population":1834},"geometry":{"type":"Point","coordinates":[4.5128,45.6073]}},{"type":"Feature","properties":{"nom":"Légny","code":"69111","codeDepartement":"69","siren":"216901116","codeEpci":"200040574","codeRegion":"84","codesPostaux":["69620"],"population":691},"geometry":{"type":"Point","coordinates":[4.5742,45.905]}},{"type":"Feature","properties":{"nom":"Lentilly","code":"69112","codeDepartement":"69","siren":"216901124","codeEpci":"246900625","codeRegion":"84","codesPostaux":["69210"],"population":6508},"geometry":{"type":"Point","coordinates":[4.6691,45.8166]}},{"type":"Feature","properties":{"nom":"Létra","code":"69113","codeDepartement":"69","siren":"216901132","codeEpci":"200040574","codeRegion":"84","codesPostaux":["69620"],"population":903},"geometry":{"type":"Point","coordinates":[4.518,45.9767]}},{"type":"Feature","properties":{"nom":"Limas","code":"69115","codeDepartement":"69","siren":"216901157","codeEpci":"200040590","codeRegion":"84","codesPostaux":["69400"],"population":4790},"geometry":{"type":"Point","coordinates":[4.7196,45.9717]}},{"type":"Feature","properties":{"nom":"Limonest","code":"69116","codeDepartement":"69","siren":"216901165","codeEpci":"200046977","codeRegion":"84","codesPostaux":["69760"],"population":3838},"geometry":{"type":"Point","coordinates":[4.7682,45.8267]}},{"type":"Feature","properties":{"nom":"Lissieu","code":"69117","codeDepartement":"69","siren":"216901173","codeEpci":"200046977","codeRegion":"84","codesPostaux":["69380"],"population":3188},"geometry":{"type":"Point","coordinates":[4.7496,45.8582]}},{"type":"Feature","properties":{"nom":"Loire-sur-Rhône","code":"69118","codeDepartement":"69","siren":"216901181","codeEpci":"200077014","codeRegion":"84","codesPostaux":["69700"],"population":2698},"geometry":{"type":"Point","coordinates":[4.7847,45.5482]}},{"type":"Feature","properties":{"nom":"Longes","code":"69119","codeDepartement":"69","siren":"216901199","codeEpci":"200077014","codeRegion":"84","codesPostaux":["69420"],"population":964},"geometry":{"type":"Point","coordinates":[4.6861,45.5083]}},{"type":"Feature","properties":{"nom":"Longessaigne","code":"69120","codeDepartement":"69","siren":"216901207","codeEpci":"200066587","codeRegion":"84","codesPostaux":["69770"],"population":595},"geometry":{"type":"Point","coordinates":[4.4277,45.7833]}},{"type":"Feature","properties":{"nom":"Lozanne","code":"69121","codeDepartement":"69","siren":"216901215","codeEpci":"200040574","codeRegion":"84","codesPostaux":["69380"],"population":3031},"geometry":{"type":"Point","coordinates":[4.6846,45.853]}},{"type":"Feature","properties":{"nom":"Lucenay","code":"69122","codeDepartement":"69","siren":"216901223","codeEpci":"200040574","codeRegion":"84","codesPostaux":["69480"],"population":2051},"geometry":{"type":"Point","coordinates":[4.7095,45.9138]}},{"type":"Feature","properties":{"nom":"Lyon","code":"69123","codeDepartement":"69","siren":"216901231","codeEpci":"200046977","codeRegion":"84","codesPostaux":["69001","69002","69003","69004","69005","69006","69007","69008","69009"],"population":522250},"geometry":{"type":"Point","coordinates":[4.8351,45.758]}},{"type":"Feature","properties":{"nom":"Marchampt","code":"69124","codeDepartement":"69","siren":"216901249","codeEpci":"200067817","codeRegion":"84","codesPostaux":["69430"],"population":455},"geometry":{"type":"Point","coordinates":[4.5614,46.1086]}},{"type":"Feature","properties":{"nom":"Marcilly-d'Azergues","code":"69125","codeDepartement":"69","siren":"216901256","codeEpci":"200040574","codeRegion":"84","codesPostaux":["69380"],"population":942},"geometry":{"type":"Point","coordinates":[4.7301,45.8685]}},{"type":"Feature","properties":{"nom":"Marcy","code":"69126","codeDepartement":"69","siren":"216901264","codeEpci":"200040574","codeRegion":"84","codesPostaux":["69480"],"population":842},"geometry":{"type":"Point","coordinates":[4.6755,45.9141]}},{"type":"Feature","properties":{"nom":"Marcy-l'Étoile","code":"69127","codeDepartement":"69","siren":"216901272","codeEpci":"200046977","codeRegion":"84","codesPostaux":["69280"],"population":3644},"geometry":{"type":"Point","coordinates":[4.7129,45.7855]}},{"type":"Feature","properties":{"nom":"Meaux-la-Montagne","code":"69130","codeDepartement":"69","siren":"216901306","codeEpci":"200040566","codeRegion":"84","codesPostaux":["69550"],"population":229},"geometry":{"type":"Point","coordinates":[4.4219,46.0444]}},{"type":"Feature","properties":{"nom":"Messimy","code":"69131","codeDepartement":"69","siren":"216901314","codeEpci":"246900724","codeRegion":"84","codesPostaux":["69510"],"population":3543},"geometry":{"type":"Point","coordinates":[4.6748,45.6978]}},{"type":"Feature","properties":{"nom":"Meys","code":"69132","codeDepartement":"69","siren":"216901322","codeEpci":"200066587","codeRegion":"84","codesPostaux":["69610"],"population":850},"geometry":{"type":"Point","coordinates":[4.4071,45.6813]}},{"type":"Feature","properties":{"nom":"Millery","code":"69133","codeDepartement":"69","siren":"216901330","codeEpci":"246900757","codeRegion":"84","codesPostaux":["69390"],"population":4350},"geometry":{"type":"Point","coordinates":[4.781,45.6307]}},{"type":"Feature","properties":{"nom":"Moiré","code":"69134","codeDepartement":"69","siren":"216901348","codeEpci":"200040574","codeRegion":"84","codesPostaux":["69620"],"population":233},"geometry":{"type":"Point","coordinates":[4.6034,45.9262]}},{"type":"Feature","properties":{"nom":"Deux-Grosnes","code":"69135","codeDepartement":"69","siren":"200084424","codeEpci":"200067817","codeRegion":"84","codesPostaux":["69430","69860"],"population":1914},"geometry":{"type":"Point","coordinates":[4.5631,46.2379]}},{"type":"Feature","properties":{"nom":"Montagny","code":"69136","codeDepartement":"69","siren":"216901363","codeEpci":"246900757","codeRegion":"84","codesPostaux":["69700"],"population":3200},"geometry":{"type":"Point","coordinates":[4.752,45.6296]}},{"type":"Feature","properties":{"nom":"Montmelas-Saint-Sorlin","code":"69137","codeDepartement":"69","siren":"216901371","codeEpci":"200040590","codeRegion":"84","codesPostaux":["69640"],"population":532},"geometry":{"type":"Point","coordinates":[4.6035,46.0201]}},{"type":"Feature","properties":{"nom":"Montromant","code":"69138","codeDepartement":"69","siren":"216901389","codeEpci":"200066587","codeRegion":"84","codesPostaux":["69610"],"population":446},"geometry":{"type":"Point","coordinates":[4.541,45.7111]}},{"type":"Feature","properties":{"nom":"Montrottier","code":"69139","codeDepartement":"69","siren":"216901397","codeEpci":"200066587","codeRegion":"84","codesPostaux":["69770"],"population":1386},"geometry":{"type":"Point","coordinates":[4.4654,45.8014]}},{"type":"Feature","properties":{"nom":"Morancé","code":"69140","codeDepartement":"69","siren":"216901405","codeEpci":"200040574","codeRegion":"84","codesPostaux":["69480"],"population":2176},"geometry":{"type":"Point","coordinates":[4.7016,45.8938]}},{"type":"Feature","properties":{"nom":"Mornant","code":"69141","codeDepartement":"69","siren":"216901413","codeEpci":"246900740","codeRegion":"84","codesPostaux":["69440"],"population":6274},"geometry":{"type":"Point","coordinates":[4.6747,45.6162]}},{"type":"Feature","properties":{"nom":"La Mulatière","code":"69142","codeDepartement":"69","siren":"216901421","codeEpci":"200046977","codeRegion":"84","codesPostaux":["69350"],"population":6595},"geometry":{"type":"Point","coordinates":[4.8118,45.7338]}},{"type":"Feature","properties":{"nom":"Neuville-sur-Saône","code":"69143","codeDepartement":"69","siren":"216901439","codeEpci":"200046977","codeRegion":"84","codesPostaux":["69250"],"population":7721},"geometry":{"type":"Point","coordinates":[4.8404,45.8821]}},{"type":"Feature","properties":{"nom":"Odenas","code":"69145","codeDepartement":"69","siren":"216901454","codeEpci":"200067817","codeRegion":"84","codesPostaux":["69460"],"population":938},"geometry":{"type":"Point","coordinates":[4.6417,46.0935]}},{"type":"Feature","properties":{"nom":"Orliénas","code":"69148","codeDepartement":"69","siren":"216901488","codeEpci":"246900740","codeRegion":"84","codesPostaux":["69530"],"population":2590},"geometry":{"type":"Point","coordinates":[4.7207,45.6609]}},{"type":"Feature","properties":{"nom":"Oullins-Pierre-Bénite","code":"69149","codeDepartement":"69","siren":"200102747","codeEpci":"200046977","codeRegion":"84","codesPostaux":["69310","69600"],"population":27113},"geometry":{"type":"Point","coordinates":[4.8112,45.708]}},{"type":"Feature","properties":{"nom":"Le Perréon","code":"69151","codeDepartement":"69","siren":"216901512","codeEpci":"200040590","codeRegion":"84","codesPostaux":["69460"],"population":1488},"geometry":{"type":"Point","coordinates":[4.587,46.0691]}},{"type":"Feature","properties":{"nom":"Poleymieux-au-Mont-d'Or","code":"69153","codeDepartement":"69","siren":"216901538","codeEpci":"200046977","codeRegion":"84","codesPostaux":["69250"],"population":1403},"geometry":{"type":"Point","coordinates":[4.7927,45.856]}},{"type":"Feature","properties":{"nom":"Pollionnay","code":"69154","codeDepartement":"69","siren":"216901546","codeEpci":"246900724","codeRegion":"84","codesPostaux":["69290"],"population":2974},"geometry":{"type":"Point","coordinates":[4.6585,45.7707]}},{"type":"Feature","properties":{"nom":"Pomeys","code":"69155","codeDepartement":"69","siren":"216901553","codeEpci":"200066587","codeRegion":"84","codesPostaux":["69590"],"population":1132},"geometry":{"type":"Point","coordinates":[4.4452,45.6466]}},{"type":"Feature","properties":{"nom":"Pommiers","code":"69156","codeDepartement":"69","siren":"216901561","codeEpci":"200040574","codeRegion":"84","codesPostaux":["69480"],"population":2657},"geometry":{"type":"Point","coordinates":[4.6928,45.9581]}},{"type":"Feature","properties":{"nom":"Vindry-sur-Turdine","code":"69157","codeDepartement":"69","siren":"200087070","codeEpci":"200040566","codeRegion":"84","codesPostaux":["69490"],"population":5282},"geometry":{"type":"Point","coordinates":[4.4948,45.8886]}},{"type":"Feature","properties":{"nom":"Porte des Pierres Dorées","code":"69159","codeDepartement":"69","siren":"200083616","codeEpci":"200040574","codeRegion":"84","codesPostaux":["69400","69640"],"population":3975},"geometry":{"type":"Point","coordinates":[4.6509,45.9628]}},{"type":"Feature","properties":{"nom":"Poule-les-Écharmeaux","code":"69160","codeDepartement":"69","siren":"216901603","codeEpci":"200040566","codeRegion":"84","codesPostaux":["69870"],"population":1036},"geometry":{"type":"Point","coordinates":[4.4698,46.1458]}},{"type":"Feature","properties":{"nom":"Propières","code":"69161","codeDepartement":"69","siren":"216901611","codeEpci":"200067817","codeRegion":"84","codesPostaux":["69790"],"population":481},"geometry":{"type":"Point","coordinates":[4.4503,46.1909]}},{"type":"Feature","properties":{"nom":"Quincié-en-Beaujolais","code":"69162","codeDepartement":"69","siren":"216901629","codeEpci":"200067817","codeRegion":"84","codesPostaux":["69430"],"population":1355},"geometry":{"type":"Point","coordinates":[4.614,46.1118]}},{"type":"Feature","properties":{"nom":"Quincieux","code":"69163","codeDepartement":"69","siren":"216901637","codeEpci":"200046977","codeRegion":"84","codesPostaux":["69650"],"population":3549},"geometry":{"type":"Point","coordinates":[4.7724,45.9168]}},{"type":"Feature","properties":{"nom":"Ranchal","code":"69164","codeDepartement":"69","siren":"216901645","codeEpci":"200040566","codeRegion":"84","codesPostaux":["69470"],"population":318},"geometry":{"type":"Point","coordinates":[4.3974,46.125]}},{"type":"Feature","properties":{"nom":"Régnié-Durette","code":"69165","codeDepartement":"69","siren":"216901652","codeEpci":"200067817","codeRegion":"84","codesPostaux":["69430"],"population":1148},"geometry":{"type":"Point","coordinates":[4.6449,46.1531]}},{"type":"Feature","properties":{"nom":"Riverie","code":"69166","codeDepartement":"69","siren":"216901660","codeEpci":"246900740","codeRegion":"84","codesPostaux":["69440"],"population":321},"geometry":{"type":"Point","coordinates":[4.5883,45.5985]}},{"type":"Feature","properties":{"nom":"Rivolet","code":"69167","codeDepartement":"69","siren":"216901678","codeEpci":"200040590","codeRegion":"84","codesPostaux":["69640"],"population":588},"geometry":{"type":"Point","coordinates":[4.5829,46.0084]}},{"type":"Feature","properties":{"nom":"Rochetaillée-sur-Saône","code":"69168","codeDepartement":"69","siren":"216901686","codeEpci":"200046977","codeRegion":"84","codesPostaux":["69270"],"population":1543},"geometry":{"type":"Point","coordinates":[4.8396,45.8427]}},{"type":"Feature","properties":{"nom":"Ronno","code":"69169","codeDepartement":"69","siren":"216901694","codeEpci":"200040566","codeRegion":"84","codesPostaux":["69550"],"population":641},"geometry":{"type":"Point","coordinates":[4.3902,45.9845]}},{"type":"Feature","properties":{"nom":"Rontalon","code":"69170","codeDepartement":"69","siren":"216901702","codeEpci":"246900740","codeRegion":"84","codesPostaux":["69510"],"population":1164},"geometry":{"type":"Point","coordinates":[4.6204,45.6554]}},{"type":"Feature","properties":{"nom":"Sain-Bel","code":"69171","codeDepartement":"69","siren":"216901710","codeEpci":"246900625","codeRegion":"84","codesPostaux":["69210"],"population":2501},"geometry":{"type":"Point","coordinates":[4.6017,45.8115]}},{"type":"Feature","properties":{"nom":"Salles-Arbuissonnas-en-Beaujolais","code":"69172","codeDepartement":"69","siren":"216901728","codeEpci":"200040590","codeRegion":"84","codesPostaux":["69460"],"population":763},"geometry":{"type":"Point","coordinates":[4.6317,46.0449]}},{"type":"Feature","properties":{"nom":"Sarcey","code":"69173","codeDepartement":"69","siren":"216901736","codeEpci":"246900625","codeRegion":"84","codesPostaux":["69490"],"population":987},"geometry":{"type":"Point","coordinates":[4.5572,45.8839]}},{"type":"Feature","properties":{"nom":"Les Sauvages","code":"69174","codeDepartement":"69","siren":"216901744","codeEpci":"200040566","codeRegion":"84","codesPostaux":["69170"],"population":617},"geometry":{"type":"Point","coordinates":[4.3695,45.9245]}},{"type":"Feature","properties":{"nom":"Savigny","code":"69175","codeDepartement":"69","siren":"216901751","codeEpci":"246900625","codeRegion":"84","codesPostaux":["69210"],"population":1975},"geometry":{"type":"Point","coordinates":[4.5599,45.8174]}},{"type":"Feature","properties":{"nom":"Soucieu-en-Jarrest","code":"69176","codeDepartement":"69","siren":"216901769","codeEpci":"246900740","codeRegion":"84","codesPostaux":["69510"],"population":4645},"geometry":{"type":"Point","coordinates":[4.6907,45.677]}},{"type":"Feature","properties":{"nom":"Sourcieux-les-Mines","code":"69177","codeDepartement":"69","siren":"216901777","codeEpci":"246900625","codeRegion":"84","codesPostaux":["69210"],"population":2094},"geometry":{"type":"Point","coordinates":[4.6311,45.7979]}},{"type":"Feature","properties":{"nom":"Souzy","code":"69178","codeDepartement":"69","siren":"216901785","codeEpci":"200066587","codeRegion":"84","codesPostaux":["69610"],"population":786},"geometry":{"type":"Point","coordinates":[4.4505,45.7027]}},{"type":"Feature","properties":{"nom":"Beauvallon","code":"69179","codeDepartement":"69","siren":"200077410","codeEpci":"246900740","codeRegion":"84","codesPostaux":["69700"],"population":4135},"geometry":{"type":"Point","coordinates":[4.7041,45.5898]}},{"type":"Feature","properties":{"nom":"Saint-André-la-Côte","code":"69180","codeDepartement":"69","siren":"216901801","codeEpci":"246900740","codeRegion":"84","codesPostaux":["69440"],"population":279},"geometry":{"type":"Point","coordinates":[4.5935,45.6313]}},{"type":"Feature","properties":{"nom":"Saint-Appolinaire","code":"69181","codeDepartement":"69","siren":"216901819","codeEpci":"200040566","codeRegion":"84","codesPostaux":["69170"],"population":235},"geometry":{"type":"Point","coordinates":[4.4275,45.9772]}},{"type":"Feature","properties":{"nom":"Saint-Bonnet-des-Bruyères","code":"69182","codeDepartement":"69","siren":"216901827","codeEpci":"200067817","codeRegion":"84","codesPostaux":["69790"],"population":367},"geometry":{"type":"Point","coordinates":[4.4721,46.2669]}},{"type":"Feature","properties":{"nom":"Saint-Bonnet-le-Troncy","code":"69183","codeDepartement":"69","siren":"216901835","codeEpci":"200040566","codeRegion":"84","codesPostaux":["69870"],"population":316},"geometry":{"type":"Point","coordinates":[4.4172,46.0781]}},{"type":"Feature","properties":{"nom":"Sainte-Catherine","code":"69184","codeDepartement":"69","siren":"216901843","codeEpci":"200066587","codeRegion":"84","codesPostaux":["69440"],"population":992},"geometry":{"type":"Point","coordinates":[4.5734,45.6036]}},{"type":"Feature","properties":{"nom":"Saint-Clément-de-Vers","code":"69186","codeDepartement":"69","siren":"216901868","codeEpci":"200067817","codeRegion":"84","codesPostaux":["69790"],"population":204},"geometry":{"type":"Point","coordinates":[4.4157,46.2272]}},{"type":"Feature","properties":{"nom":"Saint-Clément-les-Places","code":"69187","codeDepartement":"69","siren":"216901876","codeEpci":"200066587","codeRegion":"84","codesPostaux":["69930"],"population":654},"geometry":{"type":"Point","coordinates":[4.4207,45.7561]}},{"type":"Feature","properties":{"nom":"Saint-Clément-sur-Valsonne","code":"69188","codeDepartement":"69","siren":"216901884","codeEpci":"200040566","codeRegion":"84","codesPostaux":["69170"],"population":911},"geometry":{"type":"Point","coordinates":[4.4585,45.926]}},{"type":"Feature","properties":{"nom":"Sainte-Colombe","code":"69189","codeDepartement":"69","siren":"216901892","codeEpci":"200077014","codeRegion":"84","codesPostaux":["69560"],"population":1953},"geometry":{"type":"Point","coordinates":[4.8582,45.5247]}},{"type":"Feature","properties":{"nom":"Sainte-Consorce","code":"69190","codeDepartement":"69","siren":"216901900","codeEpci":"246900724","codeRegion":"84","codesPostaux":["69280"],"population":2059},"geometry":{"type":"Point","coordinates":[4.6959,45.7765]}},{"type":"Feature","properties":{"nom":"Saint-Cyr-au-Mont-d'Or","code":"69191","codeDepartement":"69","siren":"216901918","codeEpci":"200046977","codeRegion":"84","codesPostaux":["69450"],"population":5900},"geometry":{"type":"Point","coordinates":[4.8162,45.8216]}},{"type":"Feature","properties":{"nom":"Saint-Cyr-le-Chatoux","code":"69192","codeDepartement":"69","siren":"216901926","codeEpci":"200040590","codeRegion":"84","codesPostaux":["69870"],"population":153},"geometry":{"type":"Point","coordinates":[4.5382,46.0335]}},{"type":"Feature","properties":{"nom":"Saint-Cyr-sur-le-Rhône","code":"69193","codeDepartement":"69","siren":"216901934","codeEpci":"200077014","codeRegion":"84","codesPostaux":["69560"],"population":1275},"geometry":{"type":"Point","coordinates":[4.8242,45.5154]}},{"type":"Feature","properties":{"nom":"Saint-Didier-au-Mont-d'Or","code":"69194","codeDepartement":"69","siren":"216901942","codeEpci":"200046977","codeRegion":"84","codesPostaux":["69370"],"population":7265},"geometry":{"type":"Point","coordinates":[4.8003,45.8159]}},{"type":"Feature","properties":{"nom":"Saint-Didier-sur-Beaujeu","code":"69196","codeDepartement":"69","siren":"216901967","codeEpci":"200067817","codeRegion":"84","codesPostaux":["69430"],"population":605},"geometry":{"type":"Point","coordinates":[4.5341,46.1453]}},{"type":"Feature","properties":{"nom":"Saint-Étienne-des-Oullières","code":"69197","codeDepartement":"69","siren":"216901975","codeEpci":"200040590","codeRegion":"84","codesPostaux":["69460"],"population":2206},"geometry":{"type":"Point","coordinates":[4.6557,46.0645]}},{"type":"Feature","properties":{"nom":"Saint-Étienne-la-Varenne","code":"69198","codeDepartement":"69","siren":"216901983","codeEpci":"200067817","codeRegion":"84","codesPostaux":["69460"],"population":769},"geometry":{"type":"Point","coordinates":[4.6188,46.0765]}},{"type":"Feature","properties":{"nom":"Saint-Fons","code":"69199","codeDepartement":"69","siren":"216901991","codeEpci":"200046977","codeRegion":"84","codesPostaux":["69190"],"population":19360},"geometry":{"type":"Point","coordinates":[4.8514,45.6997]}},{"type":"Feature","properties":{"nom":"Saint-Forgeux","code":"69200","codeDepartement":"69","siren":"216902007","codeEpci":"200040566","codeRegion":"84","codesPostaux":["69490"],"population":1516},"geometry":{"type":"Point","coordinates":[4.4583,45.8522]}},{"type":"Feature","properties":{"nom":"Sainte-Foy-l'Argentière","code":"69201","codeDepartement":"69","siren":"216902015","codeEpci":"200066587","codeRegion":"84","codesPostaux":["69610"],"population":1291},"geometry":{"type":"Point","coordinates":[4.4705,45.7044]}},{"type":"Feature","properties":{"nom":"Sainte-Foy-lès-Lyon","code":"69202","codeDepartement":"69","siren":"216902023","codeEpci":"200046977","codeRegion":"84","codesPostaux":["69110"],"population":21858},"geometry":{"type":"Point","coordinates":[4.7926,45.7362]}},{"type":"Feature","properties":{"nom":"Saint-Genis-l'Argentière","code":"69203","codeDepartement":"69","siren":"216902031","codeEpci":"200066587","codeRegion":"84","codesPostaux":["69610"],"population":987},"geometry":{"type":"Point","coordinates":[4.4926,45.7145]}},{"type":"Feature","properties":{"nom":"Saint-Genis-Laval","code":"69204","codeDepartement":"69","siren":"216902049","codeEpci":"200046977","codeRegion":"84","codesPostaux":["69230"],"population":20929},"geometry":{"type":"Point","coordinates":[4.7929,45.6922]}},{"type":"Feature","properties":{"nom":"Saint-Genis-les-Ollières","code":"69205","codeDepartement":"69","siren":"216902056","codeEpci":"200046977","codeRegion":"84","codesPostaux":["69290"],"population":5300},"geometry":{"type":"Point","coordinates":[4.7248,45.7614]}},{"type":"Feature","properties":{"nom":"Saint-Georges-de-Reneins","code":"69206","codeDepartement":"69","siren":"216902064","codeEpci":"200067817","codeRegion":"84","codesPostaux":["69830"],"population":4461},"geometry":{"type":"Point","coordinates":[4.7164,46.0587]}},{"type":"Feature","properties":{"nom":"Saint-Germain-au-Mont-d'Or","code":"69207","codeDepartement":"69","siren":"216902072","codeEpci":"200046977","codeRegion":"84","codesPostaux":["69650"],"population":2978},"geometry":{"type":"Point","coordinates":[4.8036,45.8842]}},{"type":"Feature","properties":{"nom":"Saint-Germain-Nuelles","code":"69208","codeDepartement":"69","siren":"200034346","codeEpci":"246900625","codeRegion":"84","codesPostaux":["69210"],"population":2245},"geometry":{"type":"Point","coordinates":[4.6167,45.8604]}},{"type":"Feature","properties":{"nom":"Saint-Igny-de-Vers","code":"69209","codeDepartement":"69","siren":"216902098","codeEpci":"200067817","codeRegion":"84","codesPostaux":["69790"],"population":568},"geometry":{"type":"Point","coordinates":[4.4381,46.2368]}},{"type":"Feature","properties":{"nom":"Saint-Jean-des-Vignes","code":"69212","codeDepartement":"69","siren":"216902122","codeEpci":"200040574","codeRegion":"84","codesPostaux":["69380"],"population":479},"geometry":{"type":"Point","coordinates":[4.683,45.8746]}},{"type":"Feature","properties":{"nom":"Saint-Jean-la-Bussière","code":"69214","codeDepartement":"69","siren":"216902148","codeEpci":"200040566","codeRegion":"84","codesPostaux":["69550"],"population":1187},"geometry":{"type":"Point","coordinates":[4.3341,46.0038]}},{"type":"Feature","properties":{"nom":"Saint-Julien","code":"69215","codeDepartement":"69","siren":"216902155","codeEpci":"200040590","codeRegion":"84","codesPostaux":["69640"],"population":902},"geometry":{"type":"Point","coordinates":[4.648,46.0252]}},{"type":"Feature","properties":{"nom":"Saint-Julien-sur-Bibost","code":"69216","codeDepartement":"69","siren":"216902163","codeEpci":"246900625","codeRegion":"84","codesPostaux":["69690"],"population":587},"geometry":{"type":"Point","coordinates":[4.5087,45.7984]}},{"type":"Feature","properties":{"nom":"Saint-Just-d'Avray","code":"69217","codeDepartement":"69","siren":"216902171","codeEpci":"200040566","codeRegion":"84","codesPostaux":["69870"],"population":743},"geometry":{"type":"Point","coordinates":[4.4576,45.9994]}},{"type":"Feature","properties":{"nom":"Saint-Lager","code":"69218","codeDepartement":"69","siren":"216902189","codeEpci":"200067817","codeRegion":"84","codesPostaux":["69220"],"population":1046},"geometry":{"type":"Point","coordinates":[4.6728,46.1129]}},{"type":"Feature","properties":{"nom":"Saint-Laurent-d'Agny","code":"69219","codeDepartement":"69","siren":"216902197","codeEpci":"246900740","codeRegion":"84","codesPostaux":["69440"],"population":2132},"geometry":{"type":"Point","coordinates":[4.6828,45.6406]}},{"type":"Feature","properties":{"nom":"Saint-Laurent-de-Chamousset","code":"69220","codeDepartement":"69","siren":"216902205","codeEpci":"200066587","codeRegion":"84","codesPostaux":["69930"],"population":1883},"geometry":{"type":"Point","coordinates":[4.4688,45.7402]}},{"type":"Feature","properties":{"nom":"Saint-Marcel-l'Éclairé","code":"69225","codeDepartement":"69","siren":"216902254","codeEpci":"200040566","codeRegion":"84","codesPostaux":["69170"],"population":543},"geometry":{"type":"Point","coordinates":[4.4279,45.8712]}},{"type":"Feature","properties":{"nom":"Saint-Martin-en-Haut","code":"69227","codeDepartement":"69","siren":"216902270","codeEpci":"200066587","codeRegion":"84","codesPostaux":["69850"],"population":3891},"geometry":{"type":"Point","coordinates":[4.5561,45.6583]}},{"type":"Feature","properties":{"nom":"Chabanière","code":"69228","codeDepartement":"69","siren":"200065852","codeEpci":"246900740","codeRegion":"84","codesPostaux":["69440"],"population":4249},"geometry":{"type":"Point","coordinates":[4.6187,45.5853]}},{"type":"Feature","properties":{"nom":"Saint-Nizier-d'Azergues","code":"69229","codeDepartement":"69","siren":"216902296","codeEpci":"200040566","codeRegion":"84","codesPostaux":["69870"],"population":784},"geometry":{"type":"Point","coordinates":[4.4613,46.083]}},{"type":"Feature","properties":{"nom":"Sainte-Paule","code":"69230","codeDepartement":"69","siren":"216902304","codeEpci":"200040574","codeRegion":"84","codesPostaux":["69620"],"population":322},"geometry":{"type":"Point","coordinates":[4.5634,45.9722]}},{"type":"Feature","properties":{"nom":"Saint-Pierre-la-Palud","code":"69231","codeDepartement":"69","siren":"216902312","codeEpci":"246900625","codeRegion":"84","codesPostaux":["69210"],"population":2587},"geometry":{"type":"Point","coordinates":[4.6163,45.7833]}},{"type":"Feature","properties":{"nom":"Saint-Romain-au-Mont-d'Or","code":"69233","codeDepartement":"69","siren":"216902338","codeEpci":"200046977","codeRegion":"84","codesPostaux":["69270"],"population":1238},"geometry":{"type":"Point","coordinates":[4.8224,45.8355]}},{"type":"Feature","properties":{"nom":"Saint-Romain-de-Popey","code":"69234","codeDepartement":"69","siren":"216902346","codeEpci":"200040566","codeRegion":"84","codesPostaux":["69490"],"population":1661},"geometry":{"type":"Point","coordinates":[4.5291,45.855]}},{"type":"Feature","properties":{"nom":"Saint-Romain-en-Gal","code":"69235","codeDepartement":"69","siren":"216902353","codeEpci":"200077014","codeRegion":"84","codesPostaux":["69560"],"population":1980},"geometry":{"type":"Point","coordinates":[4.8307,45.5402]}},{"type":"Feature","properties":{"nom":"Saint-Romain-en-Gier","code":"69236","codeDepartement":"69","siren":"216902361","codeEpci":"200077014","codeRegion":"84","codesPostaux":["69700"],"population":600},"geometry":{"type":"Point","coordinates":[4.7065,45.5637]}},{"type":"Feature","properties":{"nom":"Saint-Symphorien-sur-Coise","code":"69238","codeDepartement":"69","siren":"216902387","codeEpci":"200066587","codeRegion":"84","codesPostaux":["69590"],"population":3712},"geometry":{"type":"Point","coordinates":[4.4456,45.6314]}},{"type":"Feature","properties":{"nom":"Saint-Vérand","code":"69239","codeDepartement":"69","siren":"216902395","codeEpci":"200040574","codeRegion":"84","codesPostaux":["69620"],"population":1169},"geometry":{"type":"Point","coordinates":[4.5208,45.9234]}},{"type":"Feature","properties":{"nom":"Saint-Vincent-de-Reins","code":"69240","codeDepartement":"69","siren":"216902403","codeEpci":"200040566","codeRegion":"84","codesPostaux":["69240"],"population":620},"geometry":{"type":"Point","coordinates":[4.3937,46.0715]}},{"type":"Feature","properties":{"nom":"Taluyers","code":"69241","codeDepartement":"69","siren":"216902411","codeEpci":"246900740","codeRegion":"84","codesPostaux":["69440"],"population":2628},"geometry":{"type":"Point","coordinates":[4.7265,45.6343]}},{"type":"Feature","properties":{"nom":"Taponas","code":"69242","codeDepartement":"69","siren":"216902429","codeEpci":"200067817","codeRegion":"84","codesPostaux":["69220"],"population":894},"geometry":{"type":"Point","coordinates":[4.7648,46.1238]}},{"type":"Feature","properties":{"nom":"Tarare","code":"69243","codeDepartement":"69","siren":"216902437","codeEpci":"200040566","codeRegion":"84","codesPostaux":["69170"],"population":10428},"geometry":{"type":"Point","coordinates":[4.4302,45.9071]}},{"type":"Feature","properties":{"nom":"Tassin-la-Demi-Lune","code":"69244","codeDepartement":"69","siren":"216902445","codeEpci":"200046977","codeRegion":"84","codesPostaux":["69160"],"population":22676},"geometry":{"type":"Point","coordinates":[4.7521,45.7637]}},{"type":"Feature","properties":{"nom":"Ternand","code":"69245","codeDepartement":"69","siren":"216902452","codeEpci":"200040574","codeRegion":"84","codesPostaux":["69620"],"population":724},"geometry":{"type":"Point","coordinates":[4.5181,45.9508]}},{"type":"Feature","properties":{"nom":"Theizé","code":"69246","codeDepartement":"69","siren":"216902460","codeEpci":"200040574","codeRegion":"84","codesPostaux":["69620"],"population":1309},"geometry":{"type":"Point","coordinates":[4.6277,45.9418]}},{"type":"Feature","properties":{"nom":"Thizy-les-Bourgs","code":"69248","codeDepartement":"69","siren":"200033652","codeEpci":"200040566","codeRegion":"84","codesPostaux":["69240"],"population":5869},"geometry":{"type":"Point","coordinates":[4.3109,46.0505]}},{"type":"Feature","properties":{"nom":"Thurins","code":"69249","codeDepartement":"69","siren":"216902494","codeEpci":"246900724","codeRegion":"84","codesPostaux":["69510"],"population":3131},"geometry":{"type":"Point","coordinates":[4.6252,45.6809]}},{"type":"Feature","properties":{"nom":"La Tour-de-Salvagny","code":"69250","codeDepartement":"69","siren":"216902502","codeEpci":"200046977","codeRegion":"84","codesPostaux":["69890"],"population":4272},"geometry":{"type":"Point","coordinates":[4.7129,45.8086]}},{"type":"Feature","properties":{"nom":"Trèves","code":"69252","codeDepartement":"69","siren":"216902528","codeEpci":"200077014","codeRegion":"84","codesPostaux":["69420"],"population":735},"geometry":{"type":"Point","coordinates":[4.6918,45.5358]}},{"type":"Feature","properties":{"nom":"Tupin-et-Semons","code":"69253","codeDepartement":"69","siren":"216902536","codeEpci":"200077014","codeRegion":"84","codesPostaux":["69420"],"population":647},"geometry":{"type":"Point","coordinates":[4.7776,45.4941]}},{"type":"Feature","properties":{"nom":"Valsonne","code":"69254","codeDepartement":"69","siren":"216902544","codeEpci":"200040566","codeRegion":"84","codesPostaux":["69170"],"population":983},"geometry":{"type":"Point","coordinates":[4.4264,45.9463]}},{"type":"Feature","properties":{"nom":"Vaugneray","code":"69255","codeDepartement":"69","siren":"200047785","codeEpci":"246900724","codeRegion":"84","codesPostaux":["69670"],"population":6091},"geometry":{"type":"Point","coordinates":[4.6502,45.73]}},{"type":"Feature","properties":{"nom":"Vaulx-en-Velin","code":"69256","codeDepartement":"69","siren":"216902569","codeEpci":"200046977","codeRegion":"84","codesPostaux":["69120"],"population":52139},"geometry":{"type":"Point","coordinates":[4.925,45.7776]}},{"type":"Feature","properties":{"nom":"Vaux-en-Beaujolais","code":"69257","codeDepartement":"69","siren":"216902577","codeEpci":"200040590","codeRegion":"84","codesPostaux":["69460"],"population":1131},"geometry":{"type":"Point","coordinates":[4.5801,46.0459]}},{"type":"Feature","properties":{"nom":"Vauxrenard","code":"69258","codeDepartement":"69","siren":"216902585","codeEpci":"200067817","codeRegion":"84","codesPostaux":["69820"],"population":317},"geometry":{"type":"Point","coordinates":[4.6415,46.2207]}},{"type":"Feature","properties":{"nom":"Vénissieux","code":"69259","codeDepartement":"69","siren":"216902593","codeEpci":"200046977","codeRegion":"84","codesPostaux":["69200"],"population":66363},"geometry":{"type":"Point","coordinates":[4.8805,45.7012]}},{"type":"Feature","properties":{"nom":"Vernaison","code":"69260","codeDepartement":"69","siren":"216902601","codeEpci":"200046977","codeRegion":"84","codesPostaux":["69390"],"population":5140},"geometry":{"type":"Point","coordinates":[4.8121,45.6464]}},{"type":"Feature","properties":{"nom":"Vernay","code":"69261","codeDepartement":"69","siren":"216902619","codeEpci":"200067817","codeRegion":"84","codesPostaux":["69430"],"population":110},"geometry":{"type":"Point","coordinates":[4.5279,46.1639]}},{"type":"Feature","properties":{"nom":"Villechenève","code":"69263","codeDepartement":"69","siren":"216902635","codeEpci":"200066587","codeRegion":"84","codesPostaux":["69770"],"population":894},"geometry":{"type":"Point","coordinates":[4.4082,45.8144]}},{"type":"Feature","properties":{"nom":"Villefranche-sur-Saône","code":"69264","codeDepartement":"69","siren":"216902643","codeEpci":"200040590","codeRegion":"84","codesPostaux":["69400"],"population":35913},"geometry":{"type":"Point","coordinates":[4.726,45.9837]}},{"type":"Feature","properties":{"nom":"Ville-sur-Jarnioux","code":"69265","codeDepartement":"69","siren":"216902650","codeEpci":"200040590","codeRegion":"84","codesPostaux":["69640"],"population":811},"geometry":{"type":"Point","coordinates":[4.5942,45.9693]}},{"type":"Feature","properties":{"nom":"Villeurbanne","code":"69266","codeDepartement":"69","siren":"216902668","codeEpci":"200046977","codeRegion":"84","codesPostaux":["69100"],"population":156928},"geometry":{"type":"Point","coordinates":[4.8898,45.7719]}},{"type":"Feature","properties":{"nom":"Villié-Morgon","code":"69267","codeDepartement":"69","siren":"216902676","codeEpci":"200067817","codeRegion":"84","codesPostaux":["69910"],"population":2127},"geometry":{"type":"Point","coordinates":[4.6621,46.1612]}},{"type":"Feature","properties":{"nom":"Vourles","code":"69268","codeDepartement":"69","siren":"216902684","codeEpci":"246900757","codeRegion":"84","codesPostaux":["69390"],"population":3374},"geometry":{"type":"Point","coordinates":[4.7691,45.6569]}},{"type":"Feature","properties":{"nom":"Yzeron","code":"69269","codeDepartement":"69","siren":"216902692","codeEpci":"246900724","codeRegion":"84","codesPostaux":["69510"],"population":965},"geometry":{"type":"Point","coordinates":[4.6038,45.7115]}},{"type":"Feature","properties":{"nom":"Chaponnay","code":"69270","codeDepartement":"69","siren":"216902700","codeEpci":"246900765","codeRegion":"84","codesPostaux":["69970"],"population":4465},"geometry":{"type":"Point","coordinates":[4.9584,45.6315]}},{"type":"Feature","properties":{"nom":"Chassieu","code":"69271","codeDepartement":"69","siren":"216902718","codeEpci":"200046977","codeRegion":"84","codesPostaux":["69680"],"population":11092},"geometry":{"type":"Point","coordinates":[4.9638,45.7366]}},{"type":"Feature","properties":{"nom":"Communay","code":"69272","codeDepartement":"69","siren":"216902726","codeEpci":"246900765","codeRegion":"84","codesPostaux":["69360"],"population":4508},"geometry":{"type":"Point","coordinates":[4.8359,45.5977]}},{"type":"Feature","properties":{"nom":"Corbas","code":"69273","codeDepartement":"69","siren":"216902734","codeEpci":"200046977","codeRegion":"84","codesPostaux":["69960"],"population":10932},"geometry":{"type":"Point","coordinates":[4.9104,45.6654]}},{"type":"Feature","properties":{"nom":"Décines-Charpieu","code":"69275","codeDepartement":"69","siren":"216902759","codeEpci":"200046977","codeRegion":"84","codesPostaux":["69150"],"population":29731},"geometry":{"type":"Point","coordinates":[4.9589,45.7759]}},{"type":"Feature","properties":{"nom":"Feyzin","code":"69276","codeDepartement":"69","siren":"216902767","codeEpci":"200046977","codeRegion":"84","codesPostaux":["69320"],"population":9850},"geometry":{"type":"Point","coordinates":[4.8589,45.6736]}},{"type":"Feature","properties":{"nom":"Genas","code":"69277","codeDepartement":"69","siren":"216902775","codeEpci":"246900575","codeRegion":"84","codesPostaux":["69740"],"population":13483},"geometry":{"type":"Point","coordinates":[5.0172,45.7286]}},{"type":"Feature","properties":{"nom":"Genay","code":"69278","codeDepartement":"69","siren":"216902783","codeEpci":"200046977","codeRegion":"84","codesPostaux":["69730"],"population":5520},"geometry":{"type":"Point","coordinates":[4.8389,45.8989]}},{"type":"Feature","properties":{"nom":"Jonage","code":"69279","codeDepartement":"69","siren":"216902791","codeEpci":"200046977","codeRegion":"84","codesPostaux":["69330"],"population":6160},"geometry":{"type":"Point","coordinates":[5.0377,45.7886]}},{"type":"Feature","properties":{"nom":"Jons","code":"69280","codeDepartement":"69","siren":"216902809","codeEpci":"246900575","codeRegion":"84","codesPostaux":["69330"],"population":1530},"geometry":{"type":"Point","coordinates":[5.0798,45.7978]}},{"type":"Feature","properties":{"nom":"Marennes","code":"69281","codeDepartement":"69","siren":"216902817","codeEpci":"246900765","codeRegion":"84","codesPostaux":["69970"],"population":1963},"geometry":{"type":"Point","coordinates":[4.9097,45.6248]}},{"type":"Feature","properties":{"nom":"Meyzieu","code":"69282","codeDepartement":"69","siren":"216902825","codeEpci":"200046977","codeRegion":"84","codesPostaux":["69330"],"population":35882},"geometry":{"type":"Point","coordinates":[5.0114,45.7785]}},{"type":"Feature","properties":{"nom":"Mions","code":"69283","codeDepartement":"69","siren":"216902833","codeEpci":"200046977","codeRegion":"84","codesPostaux":["69780"],"population":13707},"geometry":{"type":"Point","coordinates":[4.9467,45.6628]}},{"type":"Feature","properties":{"nom":"Montanay","code":"69284","codeDepartement":"69","siren":"216902841","codeEpci":"200046977","codeRegion":"84","codesPostaux":["69250"],"population":3249},"geometry":{"type":"Point","coordinates":[4.8657,45.8793]}},{"type":"Feature","properties":{"nom":"Pusignan","code":"69285","codeDepartement":"69","siren":"216902858","codeEpci":"246900575","codeRegion":"84","codesPostaux":["69330"],"population":4172},"geometry":{"type":"Point","coordinates":[5.0659,45.7571]}},{"type":"Feature","properties":{"nom":"Rillieux-la-Pape","code":"69286","codeDepartement":"69","siren":"216902866","codeEpci":"200046977","codeRegion":"84","codesPostaux":["69140"],"population":31247},"geometry":{"type":"Point","coordinates":[4.895,45.8265]}},{"type":"Feature","properties":{"nom":"Saint-Bonnet-de-Mure","code":"69287","codeDepartement":"69","siren":"216902874","codeEpci":"246900575","codeRegion":"84","codesPostaux":["69720"],"population":6920},"geometry":{"type":"Point","coordinates":[5.0241,45.6975]}},{"type":"Feature","properties":{"nom":"Saint-Laurent-de-Mure","code":"69288","codeDepartement":"69","siren":"216902882","codeEpci":"246900575","codeRegion":"84","codesPostaux":["69720"],"population":5621},"geometry":{"type":"Point","coordinates":[5.0597,45.6842]}},{"type":"Feature","properties":{"nom":"Saint-Pierre-de-Chandieu","code":"69289","codeDepartement":"69","siren":"216902890","codeEpci":"246900575","codeRegion":"84","codesPostaux":["69780"],"population":4598},"geometry":{"type":"Point","coordinates":[5.0085,45.6471]}},{"type":"Feature","properties":{"nom":"Saint-Priest","code":"69290","codeDepartement":"69","siren":"216902908","codeEpci":"200046977","codeRegion":"84","codesPostaux":["69800"],"population":48822},"geometry":{"type":"Point","coordinates":[4.9474,45.7014]}},{"type":"Feature","properties":{"nom":"Saint-Symphorien-d'Ozon","code":"69291","codeDepartement":"69","siren":"216902916","codeEpci":"246900765","codeRegion":"84","codesPostaux":["69360"],"population":5965},"geometry":{"type":"Point","coordinates":[4.8666,45.6386]}},{"type":"Feature","properties":{"nom":"Sathonay-Camp","code":"69292","codeDepartement":"69","siren":"216902924","codeEpci":"200046977","codeRegion":"84","codesPostaux":["69580"],"population":6858},"geometry":{"type":"Point","coordinates":[4.8792,45.8255]}},{"type":"Feature","properties":{"nom":"Sathonay-Village","code":"69293","codeDepartement":"69","siren":"216902932","codeEpci":"200046977","codeRegion":"84","codesPostaux":["69580"],"population":2423},"geometry":{"type":"Point","coordinates":[4.8858,45.8394]}},{"type":"Feature","properties":{"nom":"Sérézin-du-Rhône","code":"69294","codeDepartement":"69","siren":"216902940","codeEpci":"246900765","codeRegion":"84","codesPostaux":["69360"],"population":2981},"geometry":{"type":"Point","coordinates":[4.8248,45.6285]}},{"type":"Feature","properties":{"nom":"Simandres","code":"69295","codeDepartement":"69","siren":"216902957","codeEpci":"246900765","codeRegion":"84","codesPostaux":["69360"],"population":1855},"geometry":{"type":"Point","coordinates":[4.8718,45.6111]}},{"type":"Feature","properties":{"nom":"Solaize","code":"69296","codeDepartement":"69","siren":"216902965","codeEpci":"200046977","codeRegion":"84","codesPostaux":["69360"],"population":3082},"geometry":{"type":"Point","coordinates":[4.8331,45.6462]}},{"type":"Feature","properties":{"nom":"Ternay","code":"69297","codeDepartement":"69","siren":"216902973","codeEpci":"246900765","codeRegion":"84","codesPostaux":["69360"],"population":5503},"geometry":{"type":"Point","coordinates":[4.803,45.6083]}},{"type":"Feature","properties":{"nom":"Toussieu","code":"69298","codeDepartement":"69","siren":"216902981","codeEpci":"246900575","codeRegion":"84","codesPostaux":["69780"],"population":3195},"geometry":{"type":"Point","coordinates":[4.9819,45.6585]}},{"type":"Feature","properties":{"nom":"Colombier-Saugnieu","code":"69299","codeDepartement":"69","siren":"216902999","codeEpci":"246900575","codeRegion":"84","codesPostaux":["69124","69125"],"population":2757},"geometry":{"type":"Point","coordinates":[5.1084,45.7174]}}]}