{"type":"FeatureCollection","features":[{"type":"Feature","properties":{"nom":"L'Abergement-de-Cuisery","code":"71001","codeDepartement":"71","siren":"217100015","codeEpci":"200071538","codeRegion":"27","codesPostaux":["71290"],"population":811},"geometry":{"type":"Point","coordinates":[4.9586,46.5753]}},{"type":"Feature","properties":{"nom":"L'Abergement-Sainte-Colombe","code":"71002","codeDepartement":"71","siren":"217100023","codeEpci":"200071538","codeRegion":"27","codesPostaux":["71370"],"population":1236},"geometry":{"type":"Point","coordinates":[5.0334,46.7547]}},{"type":"Feature","properties":{"nom":"Allerey-sur-Saône","code":"71003","codeDepartement":"71","siren":"217100031","codeEpci":"247100589","codeRegion":"27","codesPostaux":["71350"],"population":804},"geometry":{"type":"Point","coordinates":[4.9709,46.9145]}},{"type":"Feature","properties":{"nom":"Allériot","code":"71004","codeDepartement":"71","siren":"217100049","codeEpci":"200040038","codeRegion":"27","codesPostaux":["71380"],"population":1163},"geometry":{"type":"Point","coordinates":[4.9532,46.8021]}},{"type":"Feature","properties":{"nom":"Aluze","code":"71005","codeDepartement":"71","siren":"217100056","codeEpci":"247100589","codeRegion":"27","codesPostaux":["71510"],"population":246},"geometry":{"type":"Point","coordinates":[4.6866,46.8522]}},{"type":"Feature","properties":{"nom":"Amanzé","code":"71006","codeDepartement":"71","siren":"217100064","codeEpci":"200070548","codeRegion":"27","codesPostaux":["71800"],"population":191},"geometry":{"type":"Point","coordinates":[4.2364,46.3261]}},{"type":"Feature","properties":{"nom":"Ameugny","code":"71007","codeDepartement":"71","siren":"217100072","codeEpci":"200040293","codeRegion":"27","codesPostaux":["71460"],"population":168},"geometry":{"type":"Point","coordinates":[4.669,46.5228]}},{"type":"Feature","properties":{"nom":"Anglure-sous-Dun","code":"71008","codeDepartement":"71","siren":"217100080","codeEpci":"200070548","codeRegion":"27","codesPostaux":["71170"],"population":148},"geometry":{"type":"Point","coordinates":[4.3694,46.2359]}},{"type":"Feature","properties":{"nom":"Anost","code":"71009","codeDepartement":"71","siren":"217100098","codeEpci":"200070530","codeRegion":"27","codesPostaux":["71550"],"population":710},"geometry":{"type":"Point","coordinates":[4.0977,47.0788]}},{"type":"Feature","properties":{"nom":"Antully","code":"71010","codeDepartement":"71","siren":"217100106","codeEpci":"200070530","codeRegion":"27","codesPostaux":["71400"],"population":842},"geometry":{"type":"Point","coordinates":[4.4011,46.8876]}},{"type":"Feature","properties":{"nom":"Anzy-le-Duc","code":"71011","codeDepartement":"71","siren":"217100114","codeEpci":"247100639","codeRegion":"27","codesPostaux":["71110"],"population":428},"geometry":{"type":"Point","coordinates":[4.0761,46.3209]}},{"type":"Feature","properties":{"nom":"Artaix","code":"71012","codeDepartement":"71","siren":"217100122","codeEpci":"247100639","codeRegion":"27","codesPostaux":["71110"],"population":334},"geometry":{"type":"Point","coordinates":[3.9868,46.248]}},{"type":"Feature","properties":{"nom":"Authumes","code":"71013","codeDepartement":"71","siren":"217100130","codeEpci":"247100647","codeRegion":"27","codesPostaux":["71270"],"population":284},"geometry":{"type":"Point","coordinates":[5.307,46.8849]}},{"type":"Feature","properties":{"nom":"Autun","code":"71014","codeDepartement":"71","siren":"217100148","codeEpci":"200070530","codeRegion":"27","codesPostaux":["71400"],"population":13145},"geometry":{"type":"Point","coordinates":[4.3038,46.9386]}},{"type":"Feature","properties":{"nom":"Auxy","code":"71015","codeDepartement":"71","siren":"217100155","codeEpci":"200070530","codeRegion":"27","codesPostaux":["71400"],"population":906},"geometry":{"type":"Point","coordinates":[4.4195,46.9378]}},{"type":"Feature","properties":{"nom":"Azé","code":"71016","codeDepartement":"71","siren":"217100163","codeEpci":"200070308","codeRegion":"27","codesPostaux":["71260"],"population":1079},"geometry":{"type":"Point","coordinates":[4.7468,46.4327]}},{"type":"Feature","properties":{"nom":"Ballore","code":"71017","codeDepartement":"71","siren":"217100171","codeEpci":"200071884","codeRegion":"27","codesPostaux":["71220"],"population":93},"geometry":{"type":"Point","coordinates":[4.379,46.5369]}},{"type":"Feature","properties":{"nom":"Bantanges","code":"71018","codeDepartement":"71","siren":"217100189","codeEpci":"200071538","codeRegion":"27","codesPostaux":["71500"],"population":556},"geometry":{"type":"Point","coordinates":[5.1259,46.6043]}},{"type":"Feature","properties":{"nom":"Barizey","code":"71019","codeDepartement":"71","siren":"217100197","codeEpci":"247100589","codeRegion":"27","codesPostaux":["71640"],"population":140},"geometry":{"type":"Point","coordinates":[4.6736,46.7918]}},{"type":"Feature","properties":{"nom":"Barnay","code":"71020","codeDepartement":"71","siren":"217100205","codeEpci":"200070530","codeRegion":"27","codesPostaux":["71540"],"population":98},"geometry":{"type":"Point","coordinates":[4.3207,47.0821]}},{"type":"Feature","properties":{"nom":"Baron","code":"71021","codeDepartement":"71","siren":"217100213","codeEpci":"200071884","codeRegion":"27","codesPostaux":["71120"],"population":284},"geometry":{"type":"Point","coordinates":[4.2819,46.4964]}},{"type":"Feature","properties":{"nom":"Baudemont","code":"71022","codeDepartement":"71","siren":"217100221","codeEpci":"200070548","codeRegion":"27","codesPostaux":["71800"],"population":627},"geometry":{"type":"Point","coordinates":[4.2834,46.2925]}},{"type":"Feature","properties":{"nom":"Baudrières","code":"71023","codeDepartement":"71","siren":"217100239","codeEpci":"200071538","codeRegion":"27","codesPostaux":["71370"],"population":970},"geometry":{"type":"Point","coordinates":[4.9989,46.6664]}},{"type":"Feature","properties":{"nom":"Baugy","code":"71024","codeDepartement":"71","siren":"217100247","codeEpci":"247100639","codeRegion":"27","codesPostaux":["71110"],"population":500},"geometry":{"type":"Point","coordinates":[4.0313,46.3076]}},{"type":"Feature","properties":{"nom":"Beaubery","code":"71025","codeDepartement":"71","siren":"217100254","codeEpci":"200071884","codeRegion":"27","codesPostaux":["71220"],"population":355},"geometry":{"type":"Point","coordinates":[4.3933,46.413]}},{"type":"Feature","properties":{"nom":"Beaumont-sur-Grosne","code":"71026","codeDepartement":"71","siren":"217100262","codeEpci":"247103765","codeRegion":"27","codesPostaux":["71240"],"population":333},"geometry":{"type":"Point","coordinates":[4.8613,46.6699]}},{"type":"Feature","properties":{"nom":"Beaurepaire-en-Bresse","code":"71027","codeDepartement":"71","siren":"217100270","codeEpci":"200042414","codeRegion":"27","codesPostaux":["71580"],"population":730},"geometry":{"type":"Point","coordinates":[5.397,46.6688]}},{"type":"Feature","properties":{"nom":"Beauvernois","code":"71028","codeDepartement":"71","siren":"217100288","codeEpci":"247100647","codeRegion":"27","codesPostaux":["71270"],"population":101},"geometry":{"type":"Point","coordinates":[5.4374,46.8436]}},{"type":"Feature","properties":{"nom":"Bellevesvre","code":"71029","codeDepartement":"71","siren":"217100296","codeEpci":"247100647","codeRegion":"27","codesPostaux":["71270"],"population":296},"geometry":{"type":"Point","coordinates":[5.3636,46.8479]}},{"type":"Feature","properties":{"nom":"Bergesserin","code":"71030","codeDepartement":"71","siren":"217100304","codeEpci":"200040293","codeRegion":"27","codesPostaux":["71250"],"population":196},"geometry":{"type":"Point","coordinates":[4.5599,46.3972]}},{"type":"Feature","properties":{"nom":"Berzé-le-Châtel","code":"71031","codeDepartement":"71","siren":"217100312","codeEpci":"200040293","codeRegion":"27","codesPostaux":["71960"],"population":57},"geometry":{"type":"Point","coordinates":[4.6776,46.3936]}},{"type":"Feature","properties":{"nom":"Berzé-la-Ville","code":"71032","codeDepartement":"71","siren":"217100320","codeEpci":"200070308","codeRegion":"27","codesPostaux":["71960"],"population":701},"geometry":{"type":"Point","coordinates":[4.7008,46.3697]}},{"type":"Feature","properties":{"nom":"Bey","code":"71033","codeDepartement":"71","siren":"217100338","codeEpci":"200040038","codeRegion":"27","codesPostaux":["71620"],"population":868},"geometry":{"type":"Point","coordinates":[4.9694,46.822]}},{"type":"Feature","properties":{"nom":"Bissey-sous-Cruchaud","code":"71034","codeDepartement":"71","siren":"217100346","codeEpci":"247104094","codeRegion":"27","codesPostaux":["71390"],"population":334},"geometry":{"type":"Point","coordinates":[4.6944,46.7296]}},{"type":"Feature","properties":{"nom":"Bissy-la-Mâconnaise","code":"71035","codeDepartement":"71","siren":"217100353","codeEpci":"200069698","codeRegion":"27","codesPostaux":["71260"],"population":203},"geometry":{"type":"Point","coordinates":[4.7787,46.4866]}},{"type":"Feature","properties":{"nom":"Bissy-sous-Uxelles","code":"71036","codeDepartement":"71","siren":"217100361","codeEpci":"247103765","codeRegion":"27","codesPostaux":["71460"],"population":69},"geometry":{"type":"Point","coordinates":[4.7276,46.5695]}},{"type":"Feature","properties":{"nom":"Bissy-sur-Fley","code":"71037","codeDepartement":"71","siren":"217100379","codeEpci":"247104094","codeRegion":"27","codesPostaux":["71460"],"population":82},"geometry":{"type":"Point","coordinates":[4.6211,46.6645]}},{"type":"Feature","properties":{"nom":"Les Bizots","code":"71038","codeDepartement":"71","siren":"217100387","codeEpci":"247100290","codeRegion":"27","codesPostaux":["71710"],"population":472},"geometry":{"type":"Point","coordinates":[4.386,46.7536]}},{"type":"Feature","properties":{"nom":"Blanot","code":"71039","codeDepartement":"71","siren":"217100395","codeEpci":"200040293","codeRegion":"27","codesPostaux":["71250"],"population":190},"geometry":{"type":"Point","coordinates":[4.7408,46.4808]}},{"type":"Feature","properties":{"nom":"Blanzy","code":"71040","codeDepartement":"71","siren":"217100403","codeEpci":"247100290","codeRegion":"27","codesPostaux":["71450"],"population":6012},"geometry":{"type":"Point","coordinates":[4.3907,46.7028]}},{"type":"Feature","properties":{"nom":"Bois-Sainte-Marie","code":"71041","codeDepartement":"71","siren":"217100411","codeEpci":"200070548","codeRegion":"27","codesPostaux":["71800"],"population":187},"geometry":{"type":"Point","coordinates":[4.352,46.3345]}},{"type":"Feature","properties":{"nom":"Bonnay-Saint-Ythaire","code":"71042","codeDepartement":"71","siren":"200098622","codeEpci":"200040293","codeRegion":"27","codesPostaux":["71460"],"population":437},"geometry":{"type":"Point","coordinates":[4.6174,46.559]}},{"type":"Feature","properties":{"nom":"Les Bordes","code":"71043","codeDepartement":"71","siren":"217100437","codeEpci":"200040038","codeRegion":"27","codesPostaux":["71350"],"population":84},"geometry":{"type":"Point","coordinates":[5.0434,46.9004]}},{"type":"Feature","properties":{"nom":"Bosjean","code":"71044","codeDepartement":"71","siren":"217100445","codeEpci":"200042414","codeRegion":"27","codesPostaux":["71330"],"population":302},"geometry":{"type":"Point","coordinates":[5.3443,46.7716]}},{"type":"Feature","properties":{"nom":"Bouhans","code":"71045","codeDepartement":"71","siren":"217100452","codeEpci":"200042414","codeRegion":"27","codesPostaux":["71330"],"population":177},"geometry":{"type":"Point","coordinates":[5.294,46.7761]}},{"type":"Feature","properties":{"nom":"La Boulaye","code":"71046","codeDepartement":"71","siren":"217100460","codeEpci":"200070530","codeRegion":"27","codesPostaux":["71320"],"population":93},"geometry":{"type":"Point","coordinates":[4.1531,46.7346]}},{"type":"Feature","properties":{"nom":"Bourbon-Lancy","code":"71047","codeDepartement":"71","siren":"217100478","codeEpci":"200070316","codeRegion":"27","codesPostaux":["71140"],"population":4663},"geometry":{"type":"Point","coordinates":[3.7623,46.6184]}},{"type":"Feature","properties":{"nom":"Bourg-le-Comte","code":"71048","codeDepartement":"71","siren":"217100486","codeEpci":"247100639","codeRegion":"27","codesPostaux":["71110"],"population":171},"geometry":{"type":"Point","coordinates":[3.9821,46.3115]}},{"type":"Feature","properties":{"nom":"Bourgvilain","code":"71050","codeDepartement":"71","siren":"217100502","codeEpci":"200071645","codeRegion":"27","codesPostaux":["71520"],"population":353},"geometry":{"type":"Point","coordinates":[4.6342,46.3642]}},{"type":"Feature","properties":{"nom":"Bouzeron","code":"71051","codeDepartement":"71","siren":"217100510","codeEpci":"247100589","codeRegion":"27","codesPostaux":["71150"],"population":126},"geometry":{"type":"Point","coordinates":[4.7277,46.8908]}},{"type":"Feature","properties":{"nom":"Boyer","code":"71052","codeDepartement":"71","siren":"217100528","codeEpci":"247103765","codeRegion":"27","codesPostaux":["71700"],"population":727},"geometry":{"type":"Point","coordinates":[4.9036,46.5985]}},{"type":"Feature","properties":{"nom":"Bragny-sur-Saône","code":"71054","codeDepartement":"71","siren":"217100544","codeEpci":"200040038","codeRegion":"27","codesPostaux":["71350"],"population":686},"geometry":{"type":"Point","coordinates":[5.0302,46.9229]}},{"type":"Feature","properties":{"nom":"Branges","code":"71056","codeDepartement":"71","siren":"217100569","codeEpci":"200071579","codeRegion":"27","codesPostaux":["71500"],"population":2367},"geometry":{"type":"Point","coordinates":[5.162,46.6516]}},{"type":"Feature","properties":{"nom":"Bray","code":"71057","codeDepartement":"71","siren":"217100577","codeEpci":"200040293","codeRegion":"27","codesPostaux":["71250"],"population":124},"geometry":{"type":"Point","coordinates":[4.7062,46.5036]}},{"type":"Feature","properties":{"nom":"Bresse-sur-Grosne","code":"71058","codeDepartement":"71","siren":"217100585","codeEpci":"247103765","codeRegion":"27","codesPostaux":["71460"],"population":186},"geometry":{"type":"Point","coordinates":[4.7319,46.5944]}},{"type":"Feature","properties":{"nom":"Le Breuil","code":"71059","codeDepartement":"71","siren":"217100593","codeEpci":"247100290","codeRegion":"27","codesPostaux":["71670"],"population":3522},"geometry":{"type":"Point","coordinates":[4.4982,46.7972]}},{"type":"Feature","properties":{"nom":"Briant","code":"71060","codeDepartement":"71","siren":"217100601","codeEpci":"247103864","codeRegion":"27","codesPostaux":["71110"],"population":229},"geometry":{"type":"Point","coordinates":[4.1514,46.2966]}},{"type":"Feature","properties":{"nom":"Brienne","code":"71061","codeDepartement":"71","siren":"217100619","codeEpci":"200071538","codeRegion":"27","codesPostaux":["71290"],"population":473},"geometry":{"type":"Point","coordinates":[5.0265,46.5537]}},{"type":"Feature","properties":{"nom":"Brion","code":"71062","codeDepartement":"71","siren":"217100627","codeEpci":"200070530","codeRegion":"27","codesPostaux":["71190"],"population":290},"geometry":{"type":"Point","coordinates":[4.2392,46.9167]}},{"type":"Feature","properties":{"nom":"Broye","code":"71063","codeDepartement":"71","siren":"217100635","codeEpci":"200070530","codeRegion":"27","codesPostaux":["71190"],"population":748},"geometry":{"type":"Point","coordinates":[4.311,46.8907]}},{"type":"Feature","properties":{"nom":"Bruailles","code":"71064","codeDepartement":"71","siren":"217100643","codeEpci":"200071579","codeRegion":"27","codesPostaux":["71500"],"population":981},"geometry":{"type":"Point","coordinates":[5.2533,46.5933]}},{"type":"Feature","properties":{"nom":"Buffières","code":"71065","codeDepartement":"71","siren":"217100650","codeEpci":"200040293","codeRegion":"27","codesPostaux":["71250"],"population":276},"geometry":{"type":"Point","coordinates":[4.5392,46.4324]}},{"type":"Feature","properties":{"nom":"Burgy","code":"71066","codeDepartement":"71","siren":"217100668","codeEpci":"200069698","codeRegion":"27","codesPostaux":["71260"],"population":113},"geometry":{"type":"Point","coordinates":[4.8304,46.4645]}},{"type":"Feature","properties":{"nom":"Burnand","code":"71067","codeDepartement":"71","siren":"217100676","codeEpci":"247104094","codeRegion":"27","codesPostaux":["71460"],"population":122},"geometry":{"type":"Point","coordinates":[4.6327,46.6015]}},{"type":"Feature","properties":{"nom":"Burzy","code":"71068","codeDepartement":"71","siren":"217100684","codeEpci":"200040293","codeRegion":"27","codesPostaux":["71460"],"population":57},"geometry":{"type":"Point","coordinates":[4.5867,46.5945]}},{"type":"Feature","properties":{"nom":"Bussières","code":"71069","codeDepartement":"71","siren":"217100692","codeEpci":"200070308","codeRegion":"27","codesPostaux":["71960"],"population":586},"geometry":{"type":"Point","coordinates":[4.7118,46.3337]}},{"type":"Feature","properties":{"nom":"Buxy","code":"71070","codeDepartement":"71","siren":"217100700","codeEpci":"247104094","codeRegion":"27","codesPostaux":["71390"],"population":2151},"geometry":{"type":"Point","coordinates":[4.7149,46.7136]}},{"type":"Feature","properties":{"nom":"Céron","code":"71071","codeDepartement":"71","siren":"217100718","codeEpci":"247100639","codeRegion":"27","codesPostaux":["71110"],"population":263},"geometry":{"type":"Point","coordinates":[3.9339,46.2795]}},{"type":"Feature","properties":{"nom":"Cersot","code":"71072","codeDepartement":"71","siren":"217100726","codeEpci":"247104094","codeRegion":"27","codesPostaux":["71390"],"population":147},"geometry":{"type":"Point","coordinates":[4.6342,46.7069]}},{"type":"Feature","properties":{"nom":"Chagny","code":"71073","codeDepartement":"71","siren":"217100734","codeEpci":"200006682","codeRegion":"27","codesPostaux":["71150"],"population":5454},"geometry":{"type":"Point","coordinates":[4.7764,46.8995]}},{"type":"Feature","properties":{"nom":"Chaintré","code":"71074","codeDepartement":"71","siren":"217100742","codeEpci":"200070308","codeRegion":"27","codesPostaux":["71570"],"population":558},"geometry":{"type":"Point","coordinates":[4.7742,46.2587]}},{"type":"Feature","properties":{"nom":"Chalmoux","code":"71075","codeDepartement":"71","siren":"217100759","codeEpci":"200070316","codeRegion":"27","codesPostaux":["71140"],"population":634},"geometry":{"type":"Point","coordinates":[3.8476,46.5928]}},{"type":"Feature","properties":{"nom":"Chalon-sur-Saône","code":"71076","codeDepartement":"71","siren":"217100767","codeEpci":"247100589","codeRegion":"27","codesPostaux":["71100"],"population":45031},"geometry":{"type":"Point","coordinates":[4.8509,46.7896]}},{"type":"Feature","properties":{"nom":"Chambilly","code":"71077","codeDepartement":"71","siren":"217100775","codeEpci":"247100639","codeRegion":"27","codesPostaux":["71110"],"population":485},"geometry":{"type":"Point","coordinates":[3.9992,46.2826]}},{"type":"Feature","properties":{"nom":"Chamilly","code":"71078","codeDepartement":"71","siren":"217100783","codeEpci":"247100589","codeRegion":"27","codesPostaux":["71510"],"population":147},"geometry":{"type":"Point","coordinates":[4.6812,46.8676]}},{"type":"Feature","properties":{"nom":"Champagnat","code":"71079","codeDepartement":"71","siren":"217100791","codeEpci":"200071579","codeRegion":"27","codesPostaux":["71480"],"population":466},"geometry":{"type":"Point","coordinates":[5.3681,46.4834]}},{"type":"Feature","properties":{"nom":"Champagny-sous-Uxelles","code":"71080","codeDepartement":"71","siren":"217100809","codeEpci":"247103765","codeRegion":"27","codesPostaux":["71460"],"population":88},"geometry":{"type":"Point","coordinates":[4.7499,46.5795]}},{"type":"Feature","properties":{"nom":"Champforgeuil","code":"71081","codeDepartement":"71","siren":"217100817","codeEpci":"247100589","codeRegion":"27","codesPostaux":["71530"],"population":2595},"geometry":{"type":"Point","coordinates":[4.8236,46.8145]}},{"type":"Feature","properties":{"nom":"Champlecy","code":"71082","codeDepartement":"71","siren":"217100825","codeEpci":"200071884","codeRegion":"27","codesPostaux":["71120"],"population":216},"geometry":{"type":"Point","coordinates":[4.2234,46.4635]}},{"type":"Feature","properties":{"nom":"Chânes","code":"71084","codeDepartement":"71","siren":"217100841","codeEpci":"200070308","codeRegion":"27","codesPostaux":["71570"],"population":529},"geometry":{"type":"Point","coordinates":[4.7582,46.2423]}},{"type":"Feature","properties":{"nom":"Change","code":"71085","codeDepartement":"71","siren":"217100858","codeEpci":"200006682","codeRegion":"27","codesPostaux":["21340"],"population":221},"geometry":{"type":"Point","coordinates":[4.6296,46.929]}},{"type":"Feature","properties":{"nom":"Changy","code":"71086","codeDepartement":"71","siren":"217100866","codeEpci":"200071884","codeRegion":"27","codesPostaux":["71120"],"population":454},"geometry":{"type":"Point","coordinates":[4.252,46.4165]}},{"type":"Feature","properties":{"nom":"Chapaize","code":"71087","codeDepartement":"71","siren":"217100874","codeEpci":"247103765","codeRegion":"27","codesPostaux":["71460"],"population":164},"geometry":{"type":"Point","coordinates":[4.7345,46.5526]}},{"type":"Feature","properties":{"nom":"La Chapelle-au-Mans","code":"71088","codeDepartement":"71","siren":"217100882","codeEpci":"200070316","codeRegion":"27","codesPostaux":["71130"],"population":221},"geometry":{"type":"Point","coordinates":[3.9801,46.6321]}},{"type":"Feature","properties":{"nom":"La Chapelle-de-Bragny","code":"71089","codeDepartement":"71","siren":"217100890","codeEpci":"247103765","codeRegion":"27","codesPostaux":["71240"],"population":234},"geometry":{"type":"Point","coordinates":[4.7523,46.6203]}},{"type":"Feature","properties":{"nom":"La Chapelle-de-Guinchay","code":"71090","codeDepartement":"71","siren":"217100908","codeEpci":"200070308","codeRegion":"27","codesPostaux":["71570"],"population":4082},"geometry":{"type":"Point","coordinates":[4.7586,46.2177]}},{"type":"Feature","properties":{"nom":"La Chapelle-du-Mont-de-France","code":"71091","codeDepartement":"71","siren":"217100916","codeEpci":"200071645","codeRegion":"27","codesPostaux":["71520"],"population":191},"geometry":{"type":"Point","coordinates":[4.543,46.3793]}},{"type":"Feature","properties":{"nom":"La Chapelle-Naude","code":"71092","codeDepartement":"71","siren":"217100924","codeEpci":"200071579","codeRegion":"27","codesPostaux":["71500"],"population":491},"geometry":{"type":"Point","coordinates":[5.1919,46.5864]}},{"type":"Feature","properties":{"nom":"La Chapelle-Saint-Sauveur","code":"71093","codeDepartement":"71","siren":"217100932","codeEpci":"247100647","codeRegion":"27","codesPostaux":["71310"],"population":643},"geometry":{"type":"Point","coordinates":[5.2629,46.8432]}},{"type":"Feature","properties":{"nom":"La Chapelle-sous-Brancion","code":"71094","codeDepartement":"71","siren":"217100940","codeEpci":"200069698","codeRegion":"27","codesPostaux":["71700"],"population":140},"geometry":{"type":"Point","coordinates":[4.7896,46.5533]}},{"type":"Feature","properties":{"nom":"La Chapelle-sous-Dun","code":"71095","codeDepartement":"71","siren":"217100957","codeEpci":"200070548","codeRegion":"27","codesPostaux":["71800"],"population":433},"geometry":{"type":"Point","coordinates":[4.3,46.2655]}},{"type":"Feature","properties":{"nom":"La Chapelle-sous-Uchon","code":"71096","codeDepartement":"71","siren":"217100965","codeEpci":"200070530","codeRegion":"27","codesPostaux":["71190"],"population":191},"geometry":{"type":"Point","coordinates":[4.2433,46.8367]}},{"type":"Feature","properties":{"nom":"La Chapelle-Thècle","code":"71097","codeDepartement":"71","siren":"217100973","codeEpci":"200071538","codeRegion":"27","codesPostaux":["71470"],"population":480},"geometry":{"type":"Point","coordinates":[5.1035,46.5567]}},{"type":"Feature","properties":{"nom":"Charbonnat","code":"71098","codeDepartement":"71","siren":"217100981","codeEpci":"200070530","codeRegion":"27","codesPostaux":["71320"],"population":239},"geometry":{"type":"Point","coordinates":[4.1037,46.7766]}},{"type":"Feature","properties":{"nom":"Charbonnières","code":"71099","codeDepartement":"71","siren":"217100999","codeEpci":"200070308","codeRegion":"27","codesPostaux":["71260"],"population":329},"geometry":{"type":"Point","coordinates":[4.8325,46.3891]}},{"type":"Feature","properties":{"nom":"Chardonnay","code":"71100","codeDepartement":"71","siren":"217101005","codeEpci":"200069698","codeRegion":"27","codesPostaux":["71700"],"population":205},"geometry":{"type":"Point","coordinates":[4.8494,46.5093]}},{"type":"Feature","properties":{"nom":"Charette-Varennes","code":"71101","codeDepartement":"71","siren":"217105931","codeEpci":"247100647","codeRegion":"27","codesPostaux":["71270"],"population":443},"geometry":{"type":"Point","coordinates":[5.1984,46.9028]}},{"type":"Feature","properties":{"nom":"La Charmée","code":"71102","codeDepartement":"71","siren":"217101021","codeEpci":"247100589","codeRegion":"27","codesPostaux":["71100"],"population":678},"geometry":{"type":"Point","coordinates":[4.7946,46.7231]}},{"type":"Feature","properties":{"nom":"Charmoy","code":"71103","codeDepartement":"71","siren":"217101039","codeEpci":"247100290","codeRegion":"27","codesPostaux":["71710"],"population":278},"geometry":{"type":"Point","coordinates":[4.3185,46.7668]}},{"type":"Feature","properties":{"nom":"Charnay-lès-Chalon","code":"71104","codeDepartement":"71","siren":"217101047","codeEpci":"200040038","codeRegion":"27","codesPostaux":["71350"],"population":188},"geometry":{"type":"Point","coordinates":[5.0805,46.9363]}},{"type":"Feature","properties":{"nom":"Charnay-lès-Mâcon","code":"71105","codeDepartement":"71","siren":"217101054","codeEpci":"200070308","codeRegion":"27","codesPostaux":["71850"],"population":7969},"geometry":{"type":"Point","coordinates":[4.7887,46.3054]}},{"type":"Feature","properties":{"nom":"Charolles","code":"71106","codeDepartement":"71","siren":"217101062","codeEpci":"200071884","codeRegion":"27","codesPostaux":["71120"],"population":2819},"geometry":{"type":"Point","coordinates":[4.2736,46.4508]}},{"type":"Feature","properties":{"nom":"Charrecey","code":"71107","codeDepartement":"71","siren":"217101070","codeEpci":"247100589","codeRegion":"27","codesPostaux":["71510"],"population":336},"geometry":{"type":"Point","coordinates":[4.6699,46.8368]}},{"type":"Feature","properties":{"nom":"Chasselas","code":"71108","codeDepartement":"71","siren":"217101088","codeEpci":"200070308","codeRegion":"27","codesPostaux":["71570"],"population":173},"geometry":{"type":"Point","coordinates":[4.7197,46.2777]}},{"type":"Feature","properties":{"nom":"Chassey-le-Camp","code":"71109","codeDepartement":"71","siren":"217101096","codeEpci":"247100589","codeRegion":"27","codesPostaux":["71150"],"population":361},"geometry":{"type":"Point","coordinates":[4.7026,46.8855]}},{"type":"Feature","properties":{"nom":"Chassigny-sous-Dun","code":"71110","codeDepartement":"71","siren":"217101104","codeEpci":"200070548","codeRegion":"27","codesPostaux":["71170"],"population":547},"geometry":{"type":"Point","coordinates":[4.292,46.2372]}},{"type":"Feature","properties":{"nom":"Chassy","code":"71111","codeDepartement":"71","siren":"217101112","codeEpci":"200070316","codeRegion":"27","codesPostaux":["71130"],"population":297},"geometry":{"type":"Point","coordinates":[4.1112,46.5812]}},{"type":"Feature","properties":{"nom":"Château","code":"71112","codeDepartement":"71","siren":"217101120","codeEpci":"200040293","codeRegion":"27","codesPostaux":["71250"],"population":230},"geometry":{"type":"Point","coordinates":[4.5948,46.4216]}},{"type":"Feature","properties":{"nom":"Châteauneuf","code":"71113","codeDepartement":"71","siren":"217101138","codeEpci":"200070548","codeRegion":"27","codesPostaux":["71740"],"population":91},"geometry":{"type":"Point","coordinates":[4.2607,46.2104]}},{"type":"Feature","properties":{"nom":"Châtel-Moron","code":"71115","codeDepartement":"71","siren":"217101153","codeEpci":"247104094","codeRegion":"27","codesPostaux":["71510"],"population":86},"geometry":{"type":"Point","coordinates":[4.6369,46.7898]}},{"type":"Feature","properties":{"nom":"Châtenay","code":"71116","codeDepartement":"71","siren":"217101161","codeEpci":"200070548","codeRegion":"27","codesPostaux":["71800"],"population":169},"geometry":{"type":"Point","coordinates":[4.3814,46.2898]}},{"type":"Feature","properties":{"nom":"Châtenoy-en-Bresse","code":"71117","codeDepartement":"71","siren":"217101179","codeEpci":"247100589","codeRegion":"27","codesPostaux":["71380"],"population":1088},"geometry":{"type":"Point","coordinates":[4.9156,46.7952]}},{"type":"Feature","properties":{"nom":"Châtenoy-le-Royal","code":"71118","codeDepartement":"71","siren":"217101187","codeEpci":"247100589","codeRegion":"27","codesPostaux":["71880"],"population":6145},"geometry":{"type":"Point","coordinates":[4.8074,46.7892]}},{"type":"Feature","properties":{"nom":"Chaudenay","code":"71119","codeDepartement":"71","siren":"217101195","codeEpci":"200006682","codeRegion":"27","codesPostaux":["71150"],"population":1134},"geometry":{"type":"Point","coordinates":[4.7957,46.9171]}},{"type":"Feature","properties":{"nom":"Chauffailles","code":"71120","codeDepartement":"71","siren":"217101203","codeEpci":"200070548","codeRegion":"27","codesPostaux":["71170"],"population":3675},"geometry":{"type":"Point","coordinates":[4.3418,46.2055]}},{"type":"Feature","properties":{"nom":"La Chaux","code":"71121","codeDepartement":"71","siren":"217101211","codeEpci":"247100647","codeRegion":"27","codesPostaux":["71310"],"population":322},"geometry":{"type":"Point","coordinates":[5.2713,46.8219]}},{"type":"Feature","properties":{"nom":"Cheilly-lès-Maranges","code":"71122","codeDepartement":"71","siren":"217101229","codeEpci":"247100589","codeRegion":"27","codesPostaux":["71150"],"population":556},"geometry":{"type":"Point","coordinates":[4.6648,46.8965]}},{"type":"Feature","properties":{"nom":"Chenay-le-Châtel","code":"71123","codeDepartement":"71","siren":"217101237","codeEpci":"247100639","codeRegion":"27","codesPostaux":["71340"],"population":372},"geometry":{"type":"Point","coordinates":[3.9413,46.2314]}},{"type":"Feature","properties":{"nom":"Chenôves","code":"71124","codeDepartement":"71","siren":"217101245","codeEpci":"247104094","codeRegion":"27","codesPostaux":["71390"],"population":205},"geometry":{"type":"Point","coordinates":[4.6982,46.6642]}},{"type":"Feature","properties":{"nom":"Chérizet","code":"71125","codeDepartement":"71","siren":"217101252","codeEpci":"200040293","codeRegion":"27","codesPostaux":["71250"],"population":19},"geometry":{"type":"Point","coordinates":[4.5669,46.5159]}},{"type":"Feature","properties":{"nom":"Chevagny-les-Chevrières","code":"71126","codeDepartement":"71","siren":"217101260","codeEpci":"200070308","codeRegion":"27","codesPostaux":["71960"],"population":597},"geometry":{"type":"Point","coordinates":[4.7703,46.336]}},{"type":"Feature","properties":{"nom":"Chevagny-sur-Guye","code":"71127","codeDepartement":"71","siren":"217101278","codeEpci":"200040293","codeRegion":"27","codesPostaux":["71220"],"population":52},"geometry":{"type":"Point","coordinates":[4.4978,46.5392]}},{"type":"Feature","properties":{"nom":"Chiddes","code":"71128","codeDepartement":"71","siren":"217101286","codeEpci":"200040293","codeRegion":"27","codesPostaux":["71220"],"population":85},"geometry":{"type":"Point","coordinates":[4.5102,46.4551]}},{"type":"Feature","properties":{"nom":"Chissey-en-Morvan","code":"71129","codeDepartement":"71","siren":"217101294","codeEpci":"200070530","codeRegion":"27","codesPostaux":["71540"],"population":281},"geometry":{"type":"Point","coordinates":[4.2138,47.1212]}},{"type":"Feature","properties":{"nom":"Chissey-lès-Mâcon","code":"71130","codeDepartement":"71","siren":"217101302","codeEpci":"200040293","codeRegion":"27","codesPostaux":["71460"],"population":227},"geometry":{"type":"Point","coordinates":[4.7447,46.5194]}},{"type":"Feature","properties":{"nom":"Ciel","code":"71131","codeDepartement":"71","siren":"217101310","codeEpci":"200040038","codeRegion":"27","codesPostaux":["71350"],"population":881},"geometry":{"type":"Point","coordinates":[5.0477,46.8661]}},{"type":"Feature","properties":{"nom":"Ciry-le-Noble","code":"71132","codeDepartement":"71","siren":"217101328","codeEpci":"247100290","codeRegion":"27","codesPostaux":["71420"],"population":2248},"geometry":{"type":"Point","coordinates":[4.2938,46.5936]}},{"type":"Feature","properties":{"nom":"La Clayette","code":"71133","codeDepartement":"71","siren":"217101336","codeEpci":"200070548","codeRegion":"27","codesPostaux":["71800"],"population":1626},"geometry":{"type":"Point","coordinates":[4.3122,46.2883]}},{"type":"Feature","properties":{"nom":"Navour-sur-Grosne","code":"71134","codeDepartement":"71","siren":"200084564","codeEpci":"200071645","codeRegion":"27","codesPostaux":["71520"],"population":658},"geometry":{"type":"Point","coordinates":[4.5649,46.3547]}},{"type":"Feature","properties":{"nom":"Clessé","code":"71135","codeDepartement":"71","siren":"217101351","codeEpci":"200069698","codeRegion":"27","codesPostaux":["71260"],"population":854},"geometry":{"type":"Point","coordinates":[4.8239,46.4188]}},{"type":"Feature","properties":{"nom":"Clessy","code":"71136","codeDepartement":"71","siren":"217101369","codeEpci":"200070316","codeRegion":"27","codesPostaux":["71130"],"population":275},"geometry":{"type":"Point","coordinates":[4.0843,46.5541]}},{"type":"Feature","properties":{"nom":"Cluny","code":"71137","codeDepartement":"71","siren":"217101377","codeEpci":"200040293","codeRegion":"27","codesPostaux":["71250"],"population":4990},"geometry":{"type":"Point","coordinates":[4.6653,46.4284]}},{"type":"Feature","properties":{"nom":"Collonge-en-Charollais","code":"71139","codeDepartement":"71","siren":"217101393","codeEpci":"247104094","codeRegion":"27","codesPostaux":["71460"],"population":148},"geometry":{"type":"Point","coordinates":[4.5263,46.6469]}},{"type":"Feature","properties":{"nom":"Collonge-la-Madeleine","code":"71140","codeDepartement":"71","siren":"217101401","codeEpci":"200070530","codeRegion":"27","codesPostaux":["71360"],"population":43},"geometry":{"type":"Point","coordinates":[4.5271,46.9419]}},{"type":"Feature","properties":{"nom":"Colombier-en-Brionnais","code":"71141","codeDepartement":"71","siren":"217101419","codeEpci":"200070548","codeRegion":"27","codesPostaux":["71800"],"population":314},"geometry":{"type":"Point","coordinates":[4.3314,46.3494]}},{"type":"Feature","properties":{"nom":"La Comelle","code":"71142","codeDepartement":"71","siren":"217101427","codeEpci":"200070530","codeRegion":"27","codesPostaux":["71990"],"population":247},"geometry":{"type":"Point","coordinates":[4.1192,46.8771]}},{"type":"Feature","properties":{"nom":"Condal","code":"71143","codeDepartement":"71","siren":"217101435","codeEpci":"200071579","codeRegion":"27","codesPostaux":["71480"],"population":458},"geometry":{"type":"Point","coordinates":[5.2857,46.4682]}},{"type":"Feature","properties":{"nom":"Cordesse","code":"71144","codeDepartement":"71","siren":"217101443","codeEpci":"200070530","codeRegion":"27","codesPostaux":["71540"],"population":194},"geometry":{"type":"Point","coordinates":[4.3356,47.0455]}},{"type":"Feature","properties":{"nom":"Cormatin","code":"71145","codeDepartement":"71","siren":"217101450","codeEpci":"247103765","codeRegion":"27","codesPostaux":["71460"],"population":565},"geometry":{"type":"Point","coordinates":[4.6936,46.5352]}},{"type":"Feature","properties":{"nom":"Cortambert","code":"71146","codeDepartement":"71","siren":"217101468","codeEpci":"200040293","codeRegion":"27","codesPostaux":["71250"],"population":258},"geometry":{"type":"Point","coordinates":[4.6966,46.469]}},{"type":"Feature","properties":{"nom":"Cortevaix","code":"71147","codeDepartement":"71","siren":"217101476","codeEpci":"200040293","codeRegion":"27","codesPostaux":["71460"],"population":251},"geometry":{"type":"Point","coordinates":[4.6447,46.5279]}},{"type":"Feature","properties":{"nom":"Coublanc","code":"71148","codeDepartement":"71","siren":"217101484","codeEpci":"200070548","codeRegion":"27","codesPostaux":["71170"],"population":842},"geometry":{"type":"Point","coordinates":[4.2759,46.1719]}},{"type":"Feature","properties":{"nom":"Couches","code":"71149","codeDepartement":"71","siren":"217101492","codeEpci":"200070530","codeRegion":"27","codesPostaux":["71490"],"population":1248},"geometry":{"type":"Point","coordinates":[4.5743,46.8743]}},{"type":"Feature","properties":{"nom":"Crêches-sur-Saône","code":"71150","codeDepartement":"71","siren":"217101500","codeEpci":"200070308","codeRegion":"27","codesPostaux":["71680"],"population":3156},"geometry":{"type":"Point","coordinates":[4.788,46.24]}},{"type":"Feature","properties":{"nom":"Créot","code":"71151","codeDepartement":"71","siren":"217101518","codeEpci":"200070530","codeRegion":"27","codesPostaux":["71490"],"population":79},"geometry":{"type":"Point","coordinates":[4.6139,46.9156]}},{"type":"Feature","properties":{"nom":"Cressy-sur-Somme","code":"71152","codeDepartement":"71","siren":"217101526","codeEpci":"200070316","codeRegion":"27","codesPostaux":["71760"],"population":172},"geometry":{"type":"Point","coordinates":[3.8687,46.6997]}},{"type":"Feature","properties":{"nom":"Le Creusot","code":"71153","codeDepartement":"71","siren":"217101534","codeEpci":"247100290","codeRegion":"27","codesPostaux":["71200"],"population":20731},"geometry":{"type":"Point","coordinates":[4.4257,46.8065]}},{"type":"Feature","properties":{"nom":"Crissey","code":"71154","codeDepartement":"71","siren":"217101542","codeEpci":"247100589","codeRegion":"27","codesPostaux":["71530"],"population":2452},"geometry":{"type":"Point","coordinates":[4.8831,46.8179]}},{"type":"Feature","properties":{"nom":"Cronat","code":"71155","codeDepartement":"71","siren":"217101559","codeEpci":"200070316","codeRegion":"27","codesPostaux":["71140"],"population":513},"geometry":{"type":"Point","coordinates":[3.7086,46.7203]}},{"type":"Feature","properties":{"nom":"Cruzille","code":"71156","codeDepartement":"71","siren":"217101567","codeEpci":"200069698","codeRegion":"27","codesPostaux":["71260"],"population":262},"geometry":{"type":"Point","coordinates":[4.785,46.5101]}},{"type":"Feature","properties":{"nom":"Cuiseaux","code":"71157","codeDepartement":"71","siren":"217101575","codeEpci":"200071579","codeRegion":"27","codesPostaux":["71480"],"population":1837},"geometry":{"type":"Point","coordinates":[5.3609,46.503]}},{"type":"Feature","properties":{"nom":"Cuisery","code":"71158","codeDepartement":"71","siren":"217101583","codeEpci":"200071538","codeRegion":"27","codesPostaux":["71290"],"population":1579},"geometry":{"type":"Point","coordinates":[4.9943,46.5562]}},{"type":"Feature","properties":{"nom":"Culles-les-Roches","code":"71159","codeDepartement":"71","siren":"217101591","codeEpci":"247104094","codeRegion":"27","codesPostaux":["71460"],"population":201},"geometry":{"type":"Point","coordinates":[4.6511,46.6459]}},{"type":"Feature","properties":{"nom":"Curbigny","code":"71160","codeDepartement":"71","siren":"217101609","codeEpci":"200070548","codeRegion":"27","codesPostaux":["71800"],"population":305},"geometry":{"type":"Point","coordinates":[4.316,46.3119]}},{"type":"Feature","properties":{"nom":"Curdin","code":"71161","codeDepartement":"71","siren":"217101617","codeEpci":"200070316","codeRegion":"27","codesPostaux":["71130"],"population":330},"geometry":{"type":"Point","coordinates":[3.9965,46.5906]}},{"type":"Feature","properties":{"nom":"Curgy","code":"71162","codeDepartement":"71","siren":"217101625","codeEpci":"200070530","codeRegion":"27","codesPostaux":["71400"],"population":1118},"geometry":{"type":"Point","coordinates":[4.3783,46.9891]}},{"type":"Feature","properties":{"nom":"Curtil-sous-Buffières","code":"71163","codeDepartement":"71","siren":"217101633","codeEpci":"200040293","codeRegion":"27","codesPostaux":["71520"],"population":92},"geometry":{"type":"Point","coordinates":[4.526,46.4025]}},{"type":"Feature","properties":{"nom":"Curtil-sous-Burnand","code":"71164","codeDepartement":"71","siren":"217101641","codeEpci":"247103765","codeRegion":"27","codesPostaux":["71460"],"population":136},"geometry":{"type":"Point","coordinates":[4.6291,46.5837]}},{"type":"Feature","properties":{"nom":"Cussy-en-Morvan","code":"71165","codeDepartement":"71","siren":"217101658","codeEpci":"200070530","codeRegion":"27","codesPostaux":["71550"],"population":363},"geometry":{"type":"Point","coordinates":[4.173,47.0955]}},{"type":"Feature","properties":{"nom":"Cuzy","code":"71166","codeDepartement":"71","siren":"217101666","codeEpci":"200070316","codeRegion":"27","codesPostaux":["71320"],"population":111},"geometry":{"type":"Point","coordinates":[4.0305,46.7617]}},{"type":"Feature","properties":{"nom":"Damerey","code":"71167","codeDepartement":"71","siren":"217101674","codeEpci":"200040038","codeRegion":"27","codesPostaux":["71620"],"population":546},"geometry":{"type":"Point","coordinates":[4.9974,46.8339]}},{"type":"Feature","properties":{"nom":"Dampierre-en-Bresse","code":"71168","codeDepartement":"71","siren":"217101682","codeEpci":"247100647","codeRegion":"27","codesPostaux":["71310"],"population":173},"geometry":{"type":"Point","coordinates":[5.2033,46.8285]}},{"type":"Feature","properties":{"nom":"Davayé","code":"71169","codeDepartement":"71","siren":"217101690","codeEpci":"200070308","codeRegion":"27","codesPostaux":["71960"],"population":694},"geometry":{"type":"Point","coordinates":[4.7477,46.3037]}},{"type":"Feature","properties":{"nom":"Demigny","code":"71170","codeDepartement":"71","siren":"217101708","codeEpci":"247100589","codeRegion":"27","codesPostaux":["71150"],"population":1776},"geometry":{"type":"Point","coordinates":[4.8499,46.9137]}},{"type":"Feature","properties":{"nom":"Dennevy","code":"71171","codeDepartement":"71","siren":"217101716","codeEpci":"247100589","codeRegion":"27","codesPostaux":["71510"],"population":301},"geometry":{"type":"Point","coordinates":[4.6407,46.8661]}},{"type":"Feature","properties":{"nom":"Dettey","code":"71172","codeDepartement":"71","siren":"217101724","codeEpci":"200070530","codeRegion":"27","codesPostaux":["71190"],"population":89},"geometry":{"type":"Point","coordinates":[4.1967,46.7711]}},{"type":"Feature","properties":{"nom":"Devrouze","code":"71173","codeDepartement":"71","siren":"217101732","codeEpci":"200042414","codeRegion":"27","codesPostaux":["71330"],"population":323},"geometry":{"type":"Point","coordinates":[5.1679,46.7628]}},{"type":"Feature","properties":{"nom":"Dezize-lès-Maranges","code":"71174","codeDepartement":"71","siren":"217101740","codeEpci":"200006682","codeRegion":"27","codesPostaux":["71150"],"population":167},"geometry":{"type":"Point","coordinates":[4.6613,46.923]}},{"type":"Feature","properties":{"nom":"Diconne","code":"71175","codeDepartement":"71","siren":"217101757","codeEpci":"200042414","codeRegion":"27","codesPostaux":["71330"],"population":363},"geometry":{"type":"Point","coordinates":[5.1174,46.778]}},{"type":"Feature","properties":{"nom":"Digoin","code":"71176","codeDepartement":"71","siren":"217101765","codeEpci":"200071884","codeRegion":"27","codesPostaux":["71160"],"population":7498},"geometry":{"type":"Point","coordinates":[4.0225,46.4863]}},{"type":"Feature","properties":{"nom":"Dommartin-lès-Cuiseaux","code":"71177","codeDepartement":"71","siren":"217101773","codeEpci":"200071579","codeRegion":"27","codesPostaux":["71480"],"population":813},"geometry":{"type":"Point","coordinates":[5.2874,46.5012]}},{"type":"Feature","properties":{"nom":"Dompierre-les-Ormes","code":"71178","codeDepartement":"71","siren":"217101781","codeEpci":"200071645","codeRegion":"27","codesPostaux":["71520"],"population":880},"geometry":{"type":"Point","coordinates":[4.4802,46.3543]}},{"type":"Feature","properties":{"nom":"Dompierre-sous-Sanvignes","code":"71179","codeDepartement":"71","siren":"217101799","codeEpci":"200070316","codeRegion":"27","codesPostaux":["71420"],"population":80},"geometry":{"type":"Point","coordinates":[4.2267,46.6648]}},{"type":"Feature","properties":{"nom":"Donzy-le-Pertuis","code":"71181","codeDepartement":"71","siren":"217101815","codeEpci":"200040293","codeRegion":"27","codesPostaux":["71250"],"population":154},"geometry":{"type":"Point","coordinates":[4.7152,46.4486]}},{"type":"Feature","properties":{"nom":"Dracy-le-Fort","code":"71182","codeDepartement":"71","siren":"217101823","codeEpci":"247100589","codeRegion":"27","codesPostaux":["71640"],"population":1464},"geometry":{"type":"Point","coordinates":[4.7728,46.7981]}},{"type":"Feature","properties":{"nom":"Dracy-lès-Couches","code":"71183","codeDepartement":"71","siren":"217101831","codeEpci":"200070530","codeRegion":"27","codesPostaux":["71490"],"population":152},"geometry":{"type":"Point","coordinates":[4.5629,46.8922]}},{"type":"Feature","properties":{"nom":"Dracy-Saint-Loup","code":"71184","codeDepartement":"71","siren":"217101849","codeEpci":"200070530","codeRegion":"27","codesPostaux":["71400"],"population":631},"geometry":{"type":"Point","coordinates":[4.3467,47.0121]}},{"type":"Feature","properties":{"nom":"Dyo","code":"71185","codeDepartement":"71","siren":"217101856","codeEpci":"200070548","codeRegion":"27","codesPostaux":["71800"],"population":325},"geometry":{"type":"Point","coordinates":[4.2836,46.3639]}},{"type":"Feature","properties":{"nom":"Écuelles","code":"71186","codeDepartement":"71","siren":"217101864","codeEpci":"200040038","codeRegion":"27","codesPostaux":["71350"],"population":256},"geometry":{"type":"Point","coordinates":[5.0708,46.9516]}},{"type":"Feature","properties":{"nom":"Écuisses","code":"71187","codeDepartement":"71","siren":"217101872","codeEpci":"247100290","codeRegion":"27","codesPostaux":["71210"],"population":1609},"geometry":{"type":"Point","coordinates":[4.523,46.7556]}},{"type":"Feature","properties":{"nom":"Épertully","code":"71188","codeDepartement":"71","siren":"217101880","codeEpci":"200070530","codeRegion":"27","codesPostaux":["71360"],"population":63},"geometry":{"type":"Point","coordinates":[4.601,46.945]}},{"type":"Feature","properties":{"nom":"Épervans","code":"71189","codeDepartement":"71","siren":"217101898","codeEpci":"247100589","codeRegion":"27","codesPostaux":["71380"],"population":1630},"geometry":{"type":"Point","coordinates":[4.8983,46.7448]}},{"type":"Feature","properties":{"nom":"Épinac","code":"71190","codeDepartement":"71","siren":"217101906","codeEpci":"200070530","codeRegion":"27","codesPostaux":["71360"],"population":2150},"geometry":{"type":"Point","coordinates":[4.5128,46.9893]}},{"type":"Feature","properties":{"nom":"Essertenne","code":"71191","codeDepartement":"71","siren":"217101914","codeEpci":"247100290","codeRegion":"27","codesPostaux":["71510"],"population":479},"geometry":{"type":"Point","coordinates":[4.541,46.8092]}},{"type":"Feature","properties":{"nom":"Étang-sur-Arroux","code":"71192","codeDepartement":"71","siren":"217101922","codeEpci":"200070530","codeRegion":"27","codesPostaux":["71190"],"population":1794},"geometry":{"type":"Point","coordinates":[4.1832,46.8622]}},{"type":"Feature","properties":{"nom":"Étrigny","code":"71193","codeDepartement":"71","siren":"217101930","codeEpci":"247103765","codeRegion":"27","codesPostaux":["71240"],"population":478},"geometry":{"type":"Point","coordinates":[4.7918,46.5907]}},{"type":"Feature","properties":{"nom":"Farges-lès-Chalon","code":"71194","codeDepartement":"71","siren":"217101948","codeEpci":"247100589","codeRegion":"27","codesPostaux":["71150"],"population":810},"geometry":{"type":"Point","coordinates":[4.8081,46.8333]}},{"type":"Feature","properties":{"nom":"Farges-lès-Mâcon","code":"71195","codeDepartement":"71","siren":"217101955","codeEpci":"200069698","codeRegion":"27","codesPostaux":["71700"],"population":222},"geometry":{"type":"Point","coordinates":[4.9101,46.5126]}},{"type":"Feature","properties":{"nom":"Le Fay","code":"71196","codeDepartement":"71","siren":"217101963","codeEpci":"200071579","codeRegion":"27","codesPostaux":["71580"],"population":625},"geometry":{"type":"Point","coordinates":[5.3351,46.6649]}},{"type":"Feature","properties":{"nom":"Flacey-en-Bresse","code":"71198","codeDepartement":"71","siren":"217101989","codeEpci":"200071579","codeRegion":"27","codesPostaux":["71580"],"population":412},"geometry":{"type":"Point","coordinates":[5.3789,46.5923]}},{"type":"Feature","properties":{"nom":"Flagy","code":"71199","codeDepartement":"71","siren":"217101997","codeEpci":"200040293","codeRegion":"27","codesPostaux":["71250"],"population":171},"geometry":{"type":"Point","coordinates":[4.6422,46.4896]}},{"type":"Feature","properties":{"nom":"Fleury-la-Montagne","code":"71200","codeDepartement":"71","siren":"217102003","codeEpci":"247103864","codeRegion":"27","codesPostaux":["71340"],"population":717},"geometry":{"type":"Point","coordinates":[4.1254,46.1977]}},{"type":"Feature","properties":{"nom":"Fley","code":"71201","codeDepartement":"71","siren":"217102011","codeEpci":"247104094","codeRegion":"27","codesPostaux":["71390"],"population":191},"geometry":{"type":"Point","coordinates":[4.6384,46.6762]}},{"type":"Feature","properties":{"nom":"Fontaines","code":"71202","codeDepartement":"71","siren":"217102029","codeEpci":"247100589","codeRegion":"27","codesPostaux":["71150"],"population":1845},"geometry":{"type":"Point","coordinates":[4.7816,46.8505]}},{"type":"Feature","properties":{"nom":"Fontenay","code":"71203","codeDepartement":"71","siren":"217102037","codeEpci":"200071884","codeRegion":"27","codesPostaux":["71120"],"population":53},"geometry":{"type":"Point","coordinates":[4.2995,46.4779]}},{"type":"Feature","properties":{"nom":"Fragnes-La Loyère","code":"71204","codeDepartement":"71","siren":"200057917","codeEpci":"247100589","codeRegion":"27","codesPostaux":["71530"],"population":1456},"geometry":{"type":"Point","coordinates":[4.8374,46.8404]}},{"type":"Feature","properties":{"nom":"Frangy-en-Bresse","code":"71205","codeDepartement":"71","siren":"217102052","codeEpci":"200042414","codeRegion":"27","codesPostaux":["71330"],"population":667},"geometry":{"type":"Point","coordinates":[5.3377,46.7132]}},{"type":"Feature","properties":{"nom":"La Frette","code":"71206","codeDepartement":"71","siren":"217102060","codeEpci":"200071538","codeRegion":"27","codesPostaux":["71440"],"population":244},"geometry":{"type":"Point","coordinates":[5.0504,46.6407]}},{"type":"Feature","properties":{"nom":"Fretterans","code":"71207","codeDepartement":"71","siren":"217102078","codeEpci":"247100647","codeRegion":"27","codesPostaux":["71270"],"population":286},"geometry":{"type":"Point","coordinates":[5.2867,46.9244]}},{"type":"Feature","properties":{"nom":"Frontenard","code":"71208","codeDepartement":"71","siren":"217102086","codeEpci":"247100647","codeRegion":"27","codesPostaux":["71270"],"population":206},"geometry":{"type":"Point","coordinates":[5.1614,46.9008]}},{"type":"Feature","properties":{"nom":"Frontenaud","code":"71209","codeDepartement":"71","siren":"217102094","codeEpci":"200071579","codeRegion":"27","codesPostaux":["71580"],"population":722},"geometry":{"type":"Point","coordinates":[5.2972,46.5506]}},{"type":"Feature","properties":{"nom":"Fuissé","code":"71210","codeDepartement":"71","siren":"217102102","codeEpci":"200070308","codeRegion":"27","codesPostaux":["71960"],"population":361},"geometry":{"type":"Point","coordinates":[4.7445,46.2783]}},{"type":"Feature","properties":{"nom":"Génelard","code":"71212","codeDepartement":"71","siren":"217102128","codeEpci":"247100290","codeRegion":"27","codesPostaux":["71420"],"population":1397},"geometry":{"type":"Point","coordinates":[4.2457,46.5774]}},{"type":"Feature","properties":{"nom":"La Genête","code":"71213","codeDepartement":"71","siren":"217102136","codeEpci":"200071538","codeRegion":"27","codesPostaux":["71290"],"population":565},"geometry":{"type":"Point","coordinates":[5.0491,46.5498]}},{"type":"Feature","properties":{"nom":"Genouilly","code":"71214","codeDepartement":"71","siren":"217102144","codeEpci":"247104094","codeRegion":"27","codesPostaux":["71460"],"population":419},"geometry":{"type":"Point","coordinates":[4.5662,46.6503]}},{"type":"Feature","properties":{"nom":"Gergy","code":"71215","codeDepartement":"71","siren":"217102151","codeEpci":"247100589","codeRegion":"27","codesPostaux":["71590"],"population":2582},"geometry":{"type":"Point","coordinates":[4.9159,46.8724]}},{"type":"Feature","properties":{"nom":"Germagny","code":"71216","codeDepartement":"71","siren":"217102169","codeEpci":"247104094","codeRegion":"27","codesPostaux":["71460"],"population":195},"geometry":{"type":"Point","coordinates":[4.5984,46.6733]}},{"type":"Feature","properties":{"nom":"Germolles-sur-Grosne","code":"71217","codeDepartement":"71","siren":"217102177","codeEpci":"200071645","codeRegion":"27","codesPostaux":["71520"],"population":124},"geometry":{"type":"Point","coordinates":[4.5967,46.2791]}},{"type":"Feature","properties":{"nom":"Gibles","code":"71218","codeDepartement":"71","siren":"217102185","codeEpci":"200070548","codeRegion":"27","codesPostaux":["71800"],"population":572},"geometry":{"type":"Point","coordinates":[4.3836,46.3227]}},{"type":"Feature","properties":{"nom":"Gigny-sur-Saône","code":"71219","codeDepartement":"71","siren":"217102193","codeEpci":"247103765","codeRegion":"27","codesPostaux":["71240"],"population":556},"geometry":{"type":"Point","coordinates":[4.9354,46.6541]}},{"type":"Feature","properties":{"nom":"Gilly-sur-Loire","code":"71220","codeDepartement":"71","siren":"217102201","codeEpci":"200070316","codeRegion":"27","codesPostaux":["71160"],"population":470},"geometry":{"type":"Point","coordinates":[3.7846,46.5462]}},{"type":"Feature","properties":{"nom":"Givry","code":"71221","codeDepartement":"71","siren":"217102219","codeEpci":"247100589","codeRegion":"27","codesPostaux":["71640"],"population":3649},"geometry":{"type":"Point","coordinates":[4.7505,46.7689]}},{"type":"Feature","properties":{"nom":"Gourdon","code":"71222","codeDepartement":"71","siren":"217102227","codeEpci":"247100290","codeRegion":"27","codesPostaux":["71300"],"population":890},"geometry":{"type":"Point","coordinates":[4.4341,46.6373]}},{"type":"Feature","properties":{"nom":"La Grande-Verrière","code":"71223","codeDepartement":"71","siren":"217102235","codeEpci":"200070530","codeRegion":"27","codesPostaux":["71990"],"population":558},"geometry":{"type":"Point","coordinates":[4.1425,46.9699]}},{"type":"Feature","properties":{"nom":"Grandvaux","code":"71224","codeDepartement":"71","siren":"217102243","codeEpci":"200071884","codeRegion":"27","codesPostaux":["71430"],"population":86},"geometry":{"type":"Point","coordinates":[4.2693,46.5028]}},{"type":"Feature","properties":{"nom":"Granges","code":"71225","codeDepartement":"71","siren":"217102250","codeEpci":"247104094","codeRegion":"27","codesPostaux":["71390"],"population":563},"geometry":{"type":"Point","coordinates":[4.7519,46.737]}},{"type":"Feature","properties":{"nom":"Grevilly","code":"71226","codeDepartement":"71","siren":"217102268","codeEpci":"200069698","codeRegion":"27","codesPostaux":["71700"],"population":27},"geometry":{"type":"Point","coordinates":[4.8189,46.5142]}},{"type":"Feature","properties":{"nom":"Grury","code":"71227","codeDepartement":"71","siren":"217102276","codeEpci":"200070316","codeRegion":"27","codesPostaux":["71760"],"population":499},"geometry":{"type":"Point","coordinates":[3.9201,46.6675]}},{"type":"Feature","properties":{"nom":"Guerfand","code":"71228","codeDepartement":"71","siren":"217102284","codeEpci":"200040038","codeRegion":"27","codesPostaux":["71620"],"population":221},"geometry":{"type":"Point","coordinates":[5.0285,46.7835]}},{"type":"Feature","properties":{"nom":"Les Guerreaux","code":"71229","codeDepartement":"71","siren":"217102292","codeEpci":"200071884","codeRegion":"27","codesPostaux":["71160"],"population":228},"geometry":{"type":"Point","coordinates":[3.9178,46.5381]}},{"type":"Feature","properties":{"nom":"Gueugnon","code":"71230","codeDepartement":"71","siren":"217102300","codeEpci":"200070316","codeRegion":"27","codesPostaux":["71130"],"population":6616},"geometry":{"type":"Point","coordinates":[4.0508,46.5923]}},{"type":"Feature","properties":{"nom":"La Guiche","code":"71231","codeDepartement":"71","siren":"217102318","codeEpci":"200040293","codeRegion":"27","codesPostaux":["71220"],"population":609},"geometry":{"type":"Point","coordinates":[4.4379,46.5254]}},{"type":"Feature","properties":{"nom":"Hautefond","code":"71232","codeDepartement":"71","siren":"217102326","codeEpci":"200071884","codeRegion":"27","codesPostaux":["71600"],"population":204},"geometry":{"type":"Point","coordinates":[4.1719,46.4354]}},{"type":"Feature","properties":{"nom":"L'Hôpital-le-Mercier","code":"71233","codeDepartement":"71","siren":"217102334","codeEpci":"200071884","codeRegion":"27","codesPostaux":["71600"],"population":301},"geometry":{"type":"Point","coordinates":[4.0099,46.3939]}},{"type":"Feature","properties":{"nom":"Huilly-sur-Seille","code":"71234","codeDepartement":"71","siren":"217102342","codeEpci":"200071538","codeRegion":"27","codesPostaux":["71290"],"population":352},"geometry":{"type":"Point","coordinates":[5.0548,46.6041]}},{"type":"Feature","properties":{"nom":"Hurigny","code":"71235","codeDepartement":"71","siren":"217102359","codeEpci":"200070308","codeRegion":"27","codesPostaux":["71870"],"population":1918},"geometry":{"type":"Point","coordinates":[4.7967,46.3445]}},{"type":"Feature","properties":{"nom":"Igé","code":"71236","codeDepartement":"71","siren":"217102367","codeEpci":"200070308","codeRegion":"27","codesPostaux":["71960"],"population":884},"geometry":{"type":"Point","coordinates":[4.7353,46.4071]}},{"type":"Feature","properties":{"nom":"Igornay","code":"71237","codeDepartement":"71","siren":"217102375","codeEpci":"200070530","codeRegion":"27","codesPostaux":["71540"],"population":523},"geometry":{"type":"Point","coordinates":[4.375,47.0567]}},{"type":"Feature","properties":{"nom":"Iguerande","code":"71238","codeDepartement":"71","siren":"217102383","codeEpci":"247103864","codeRegion":"27","codesPostaux":["71340"],"population":996},"geometry":{"type":"Point","coordinates":[4.0751,46.2174]}},{"type":"Feature","properties":{"nom":"Issy-l'Évêque","code":"71239","codeDepartement":"71","siren":"217102391","codeEpci":"200070316","codeRegion":"27","codesPostaux":["71760"],"population":687},"geometry":{"type":"Point","coordinates":[4.01,46.7133]}},{"type":"Feature","properties":{"nom":"Jalogny","code":"71240","codeDepartement":"71","siren":"217102409","codeEpci":"200040293","codeRegion":"27","codesPostaux":["71250"],"population":395},"geometry":{"type":"Point","coordinates":[4.6349,46.4143]}},{"type":"Feature","properties":{"nom":"Jambles","code":"71241","codeDepartement":"71","siren":"217102417","codeEpci":"247100589","codeRegion":"27","codesPostaux":["71640"],"population":480},"geometry":{"type":"Point","coordinates":[4.6724,46.7749]}},{"type":"Feature","properties":{"nom":"Joncy","code":"71242","codeDepartement":"71","siren":"217102425","codeEpci":"200040293","codeRegion":"27","codesPostaux":["71460"],"population":512},"geometry":{"type":"Point","coordinates":[4.5489,46.6135]}},{"type":"Feature","properties":{"nom":"Joudes","code":"71243","codeDepartement":"71","siren":"217102433","codeEpci":"200071579","codeRegion":"27","codesPostaux":["71480"],"population":367},"geometry":{"type":"Point","coordinates":[5.3381,46.4747]}},{"type":"Feature","properties":{"nom":"Jouvençon","code":"71244","codeDepartement":"71","siren":"217102441","codeEpci":"200071538","codeRegion":"27","codesPostaux":["71290"],"population":446},"geometry":{"type":"Point","coordinates":[5.0526,46.5786]}},{"type":"Feature","properties":{"nom":"Jugy","code":"71245","codeDepartement":"71","siren":"217102458","codeEpci":"247103765","codeRegion":"27","codesPostaux":["71240"],"population":331},"geometry":{"type":"Point","coordinates":[4.8643,46.6053]}},{"type":"Feature","properties":{"nom":"Juif","code":"71246","codeDepartement":"71","siren":"217102466","codeEpci":"200071579","codeRegion":"27","codesPostaux":["71440"],"population":246},"geometry":{"type":"Point","coordinates":[5.162,46.6841]}},{"type":"Feature","properties":{"nom":"Jully-lès-Buxy","code":"71247","codeDepartement":"71","siren":"217102474","codeEpci":"247104094","codeRegion":"27","codesPostaux":["71390"],"population":366},"geometry":{"type":"Point","coordinates":[4.7291,46.6872]}},{"type":"Feature","properties":{"nom":"Lacrost","code":"71248","codeDepartement":"71","siren":"217102482","codeEpci":"200069698","codeRegion":"27","codesPostaux":["71700"],"population":694},"geometry":{"type":"Point","coordinates":[4.9402,46.5723]}},{"type":"Feature","properties":{"nom":"Laives","code":"71249","codeDepartement":"71","siren":"217102490","codeEpci":"247103765","codeRegion":"27","codesPostaux":["71240"],"population":973},"geometry":{"type":"Point","coordinates":[4.836,46.6545]}},{"type":"Feature","properties":{"nom":"Laizé","code":"71250","codeDepartement":"71","siren":"217102508","codeEpci":"200070308","codeRegion":"27","codesPostaux":["71870"],"population":1115},"geometry":{"type":"Point","coordinates":[4.8024,46.3825]}},{"type":"Feature","properties":{"nom":"Laizy","code":"71251","codeDepartement":"71","siren":"217102516","codeEpci":"200070530","codeRegion":"27","codesPostaux":["71190"],"population":592},"geometry":{"type":"Point","coordinates":[4.1849,46.9135]}},{"type":"Feature","properties":{"nom":"Lalheue","code":"71252","codeDepartement":"71","siren":"217102524","codeEpci":"247103765","codeRegion":"27","codesPostaux":["71240"],"population":356},"geometry":{"type":"Point","coordinates":[4.7902,46.6511]}},{"type":"Feature","properties":{"nom":"Lans","code":"71253","codeDepartement":"71","siren":"217102532","codeEpci":"247100589","codeRegion":"27","codesPostaux":["71380"],"population":939},"geometry":{"type":"Point","coordinates":[4.9343,46.7643]}},{"type":"Feature","properties":{"nom":"Lays-sur-le-Doubs","code":"71254","codeDepartement":"71","siren":"217102540","codeEpci":"247100647","codeRegion":"27","codesPostaux":["71270"],"population":158},"geometry":{"type":"Point","coordinates":[5.2405,46.9195]}},{"type":"Feature","properties":{"nom":"Lesme","code":"71255","codeDepartement":"71","siren":"217102557","codeEpci":"200070316","codeRegion":"27","codesPostaux":["71140"],"population":172},"geometry":{"type":"Point","coordinates":[3.7197,46.646]}},{"type":"Feature","properties":{"nom":"Lessard-en-Bresse","code":"71256","codeDepartement":"71","siren":"217102565","codeEpci":"200071538","codeRegion":"27","codesPostaux":["71440"],"population":554},"geometry":{"type":"Point","coordinates":[5.0728,46.7391]}},{"type":"Feature","properties":{"nom":"Lessard-le-National","code":"71257","codeDepartement":"71","siren":"217102573","codeEpci":"247100589","codeRegion":"27","codesPostaux":["71530"],"population":659},"geometry":{"type":"Point","coordinates":[4.8474,46.8747]}},{"type":"Feature","properties":{"nom":"Leynes","code":"71258","codeDepartement":"71","siren":"217102581","codeEpci":"200070308","codeRegion":"27","codesPostaux":["71570"],"population":492},"geometry":{"type":"Point","coordinates":[4.7273,46.2644]}},{"type":"Feature","properties":{"nom":"Ligny-en-Brionnais","code":"71259","codeDepartement":"71","siren":"217102599","codeEpci":"247103864","codeRegion":"27","codesPostaux":["71110"],"population":372},"geometry":{"type":"Point","coordinates":[4.2038,46.2407]}},{"type":"Feature","properties":{"nom":"Loisy","code":"71261","codeDepartement":"71","siren":"217102615","codeEpci":"200071538","codeRegion":"27","codesPostaux":["71290"],"population":678},"geometry":{"type":"Point","coordinates":[5.008,46.594]}},{"type":"Feature","properties":{"nom":"Longepierre","code":"71262","codeDepartement":"71","siren":"217102623","codeEpci":"200040038","codeRegion":"27","codesPostaux":["71270"],"population":158},"geometry":{"type":"Point","coordinates":[5.1994,46.9309]}},{"type":"Feature","properties":{"nom":"Louhans","code":"71263","codeDepartement":"71","siren":"217102631","codeEpci":"200071579","codeRegion":"27","codesPostaux":["71500"],"population":6454},"geometry":{"type":"Point","coordinates":[5.2424,46.6344]}},{"type":"Feature","properties":{"nom":"Lournand","code":"71264","codeDepartement":"71","siren":"217102649","codeEpci":"200040293","codeRegion":"27","codesPostaux":["71250"],"population":322},"geometry":{"type":"Point","coordinates":[4.6492,46.4664]}},{"type":"Feature","properties":{"nom":"Lucenay-l'Évêque","code":"71266","codeDepartement":"71","siren":"217102664","codeEpci":"200070530","codeRegion":"27","codesPostaux":["71540"],"population":320},"geometry":{"type":"Point","coordinates":[4.2614,47.0828]}},{"type":"Feature","properties":{"nom":"Lugny","code":"71267","codeDepartement":"71","siren":"217102672","codeEpci":"200069698","codeRegion":"27","codesPostaux":["71260"],"population":852},"geometry":{"type":"Point","coordinates":[4.8192,46.4797]}},{"type":"Feature","properties":{"nom":"Lugny-lès-Charolles","code":"71268","codeDepartement":"71","siren":"217102680","codeEpci":"200071884","codeRegion":"27","codesPostaux":["71120"],"population":337},"geometry":{"type":"Point","coordinates":[4.202,46.4129]}},{"type":"Feature","properties":{"nom":"Lux","code":"71269","codeDepartement":"71","siren":"217102698","codeEpci":"247100589","codeRegion":"27","codesPostaux":["71100"],"population":1957},"geometry":{"type":"Point","coordinates":[4.8558,46.7493]}},{"type":"Feature","properties":{"nom":"Mâcon","code":"71270","codeDepartement":"71","siren":"217102706","codeEpci":"200070308","codeRegion":"27","codesPostaux":["71000"],"population":34448},"geometry":{"type":"Point","coordinates":[4.8083,46.3265]}},{"type":"Feature","properties":{"nom":"Mailly","code":"71271","codeDepartement":"71","siren":"217102714","codeEpci":"247103864","codeRegion":"27","codesPostaux":["71340"],"population":147},"geometry":{"type":"Point","coordinates":[4.115,46.2304]}},{"type":"Feature","properties":{"nom":"Malay","code":"71272","codeDepartement":"71","siren":"217102722","codeEpci":"247103765","codeRegion":"27","codesPostaux":["71460"],"population":206},"geometry":{"type":"Point","coordinates":[4.6855,46.5681]}},{"type":"Feature","properties":{"nom":"Maltat","code":"71273","codeDepartement":"71","siren":"217102730","codeEpci":"200070316","codeRegion":"27","codesPostaux":["71140"],"population":282},"geometry":{"type":"Point","coordinates":[3.8112,46.6732]}},{"type":"Feature","properties":{"nom":"Mancey","code":"71274","codeDepartement":"71","siren":"217102748","codeEpci":"247103765","codeRegion":"27","codesPostaux":["71240"],"population":388},"geometry":{"type":"Point","coordinates":[4.8443,46.5704]}},{"type":"Feature","properties":{"nom":"Marcigny","code":"71275","codeDepartement":"71","siren":"217102755","codeEpci":"247100639","codeRegion":"27","codesPostaux":["71110"],"population":1720},"geometry":{"type":"Point","coordinates":[4.0437,46.2742]}},{"type":"Feature","properties":{"nom":"Marcilly-la-Gueurce","code":"71276","codeDepartement":"71","siren":"217102763","codeEpci":"200071884","codeRegion":"27","codesPostaux":["71120"],"population":131},"geometry":{"type":"Point","coordinates":[4.3057,46.398]}},{"type":"Feature","properties":{"nom":"Marcilly-lès-Buxy","code":"71277","codeDepartement":"71","siren":"217102771","codeEpci":"247104094","codeRegion":"27","codesPostaux":["71390"],"population":670},"geometry":{"type":"Point","coordinates":[4.5874,46.7244]}},{"type":"Feature","properties":{"nom":"Marigny","code":"71278","codeDepartement":"71","siren":"217102789","codeEpci":"247100290","codeRegion":"27","codesPostaux":["71300"],"population":162},"geometry":{"type":"Point","coordinates":[4.4657,46.6834]}},{"type":"Feature","properties":{"nom":"Le Rousset-Marizy","code":"71279","codeDepartement":"71","siren":"200059863","codeEpci":"200071884","codeRegion":"27","codesPostaux":["71220"],"population":611},"geometry":{"type":"Point","coordinates":[4.4339,46.5701]}},{"type":"Feature","properties":{"nom":"Marly-sous-Issy","code":"71280","codeDepartement":"71","siren":"217102805","codeEpci":"200070316","codeRegion":"27","codesPostaux":["71760"],"population":83},"geometry":{"type":"Point","coordinates":[3.9327,46.7321]}},{"type":"Feature","properties":{"nom":"Marly-sur-Arroux","code":"71281","codeDepartement":"71","siren":"217102813","codeEpci":"200070316","codeRegion":"27","codesPostaux":["71420"],"population":302},"geometry":{"type":"Point","coordinates":[4.1328,46.6218]}},{"type":"Feature","properties":{"nom":"Marmagne","code":"71282","codeDepartement":"71","siren":"217102821","codeEpci":"247100290","codeRegion":"27","codesPostaux":["71710"],"population":1266},"geometry":{"type":"Point","coordinates":[4.3754,46.8449]}},{"type":"Feature","properties":{"nom":"Marnay","code":"71283","codeDepartement":"71","siren":"217102839","codeEpci":"247100589","codeRegion":"27","codesPostaux":["71240"],"population":526},"geometry":{"type":"Point","coordinates":[4.923,46.7]}},{"type":"Feature","properties":{"nom":"Martailly-lès-Brancion","code":"71284","codeDepartement":"71","siren":"217102847","codeEpci":"200069698","codeRegion":"27","codesPostaux":["71700"],"population":130},"geometry":{"type":"Point","coordinates":[4.7907,46.5336]}},{"type":"Feature","properties":{"nom":"Martigny-le-Comte","code":"71285","codeDepartement":"71","siren":"217102854","codeEpci":"200071884","codeRegion":"27","codesPostaux":["71220"],"population":402},"geometry":{"type":"Point","coordinates":[4.3351,46.5365]}},{"type":"Feature","properties":{"nom":"Mary","code":"71286","codeDepartement":"71","siren":"217102862","codeEpci":"247100290","codeRegion":"27","codesPostaux":["71300"],"population":277},"geometry":{"type":"Point","coordinates":[4.4984,46.6111]}},{"type":"Feature","properties":{"nom":"Massilly","code":"71287","codeDepartement":"71","siren":"217102870","codeEpci":"200040293","codeRegion":"27","codesPostaux":["71250"],"population":309},"geometry":{"type":"Point","coordinates":[4.6699,46.4905]}},{"type":"Feature","properties":{"nom":"Matour","code":"71289","codeDepartement":"71","siren":"217102896","codeEpci":"200071645","codeRegion":"27","codesPostaux":["71520"],"population":1158},"geometry":{"type":"Point","coordinates":[4.4785,46.3095]}},{"type":"Feature","properties":{"nom":"Mazille","code":"71290","codeDepartement":"71","siren":"217102904","codeEpci":"200040293","codeRegion":"27","codesPostaux":["71250"],"population":387},"geometry":{"type":"Point","coordinates":[4.6032,46.3903]}},{"type":"Feature","properties":{"nom":"Melay","code":"71291","codeDepartement":"71","siren":"217102912","codeEpci":"247100639","codeRegion":"27","codesPostaux":["71340"],"population":955},"geometry":{"type":"Point","coordinates":[4.0147,46.1994]}},{"type":"Feature","properties":{"nom":"Mellecey","code":"71292","codeDepartement":"71","siren":"217102920","codeEpci":"247100589","codeRegion":"27","codesPostaux":["71640"],"population":1312},"geometry":{"type":"Point","coordinates":[4.757,46.8076]}},{"type":"Feature","properties":{"nom":"Ménetreuil","code":"71293","codeDepartement":"71","siren":"217102938","codeEpci":"200071538","codeRegion":"27","codesPostaux":["71470"],"population":410},"geometry":{"type":"Point","coordinates":[5.118,46.585]}},{"type":"Feature","properties":{"nom":"Mercurey","code":"71294","codeDepartement":"71","siren":"217102946","codeEpci":"247100589","codeRegion":"27","codesPostaux":["71640"],"population":1224},"geometry":{"type":"Point","coordinates":[4.7279,46.8383]}},{"type":"Feature","properties":{"nom":"Mervans","code":"71295","codeDepartement":"71","siren":"217102953","codeEpci":"200042414","codeRegion":"27","codesPostaux":["71310"],"population":1493},"geometry":{"type":"Point","coordinates":[5.1905,46.7884]}},{"type":"Feature","properties":{"nom":"Messey-sur-Grosne","code":"71296","codeDepartement":"71","siren":"217102961","codeEpci":"247104094","codeRegion":"27","codesPostaux":["71390"],"population":741},"geometry":{"type":"Point","coordinates":[4.7533,46.6513]}},{"type":"Feature","properties":{"nom":"Mesvres","code":"71297","codeDepartement":"71","siren":"217102979","codeEpci":"200070530","codeRegion":"27","codesPostaux":["71190"],"population":746},"geometry":{"type":"Point","coordinates":[4.2511,46.8752]}},{"type":"Feature","properties":{"nom":"Milly-Lamartine","code":"71299","codeDepartement":"71","siren":"217102995","codeEpci":"200070308","codeRegion":"27","codesPostaux":["71960"],"population":325},"geometry":{"type":"Point","coordinates":[4.6972,46.3501]}},{"type":"Feature","properties":{"nom":"Le Miroir","code":"71300","codeDepartement":"71","siren":"217103001","codeEpci":"200071579","codeRegion":"27","codesPostaux":["71480"],"population":609},"geometry":{"type":"Point","coordinates":[5.3331,46.5481]}},{"type":"Feature","properties":{"nom":"Mont","code":"71301","codeDepartement":"71","siren":"217103019","codeEpci":"200070316","codeRegion":"27","codesPostaux":["71140"],"population":163},"geometry":{"type":"Point","coordinates":[3.8283,46.6338]}},{"type":"Feature","properties":{"nom":"Montagny-lès-Buxy","code":"71302","codeDepartement":"71","siren":"217103027","codeEpci":"247104094","codeRegion":"27","codesPostaux":["71390"],"population":209},"geometry":{"type":"Point","coordinates":[4.6706,46.706]}},{"type":"Feature","properties":{"nom":"Montagny-près-Louhans","code":"71303","codeDepartement":"71","siren":"217103035","codeEpci":"200071579","codeRegion":"27","codesPostaux":["71500"],"population":494},"geometry":{"type":"Point","coordinates":[5.2837,46.655]}},{"type":"Feature","properties":{"nom":"Montbellet","code":"71305","codeDepartement":"71","siren":"217103050","codeEpci":"200069698","codeRegion":"27","codesPostaux":["71260"],"population":845},"geometry":{"type":"Point","coordinates":[4.8778,46.4715]}},{"type":"Feature","properties":{"nom":"Montceau-les-Mines","code":"71306","codeDepartement":"71","siren":"217103068","codeEpci":"247100290","codeRegion":"27","codesPostaux":["71300"],"population":16831},"geometry":{"type":"Point","coordinates":[4.3547,46.6753]}},{"type":"Feature","properties":{"nom":"Montceaux-l'Étoile","code":"71307","codeDepartement":"71","siren":"217103076","codeEpci":"247100639","codeRegion":"27","codesPostaux":["71110"],"population":293},"geometry":{"type":"Point","coordinates":[4.0619,46.3538]}},{"type":"Feature","properties":{"nom":"Montceaux-Ragny","code":"71308","codeDepartement":"71","siren":"217103084","codeEpci":"247103765","codeRegion":"27","codesPostaux":["71240"],"population":31},"geometry":{"type":"Point","coordinates":[4.8415,46.6198]}},{"type":"Feature","properties":{"nom":"Montcenis","code":"71309","codeDepartement":"71","siren":"217103092","codeEpci":"247100290","codeRegion":"27","codesPostaux":["71710"],"population":1884},"geometry":{"type":"Point","coordinates":[4.3908,46.787]}},{"type":"Feature","properties":{"nom":"Montchanin","code":"71310","codeDepartement":"71","siren":"217103100","codeEpci":"247100290","codeRegion":"27","codesPostaux":["71210"],"population":4979},"geometry":{"type":"Point","coordinates":[4.4755,46.7454]}},{"type":"Feature","properties":{"nom":"Montcony","code":"71311","codeDepartement":"71","siren":"217103118","codeEpci":"200071579","codeRegion":"27","codesPostaux":["71500"],"population":251},"geometry":{"type":"Point","coordinates":[5.2962,46.6968]}},{"type":"Feature","properties":{"nom":"Montcoy","code":"71312","codeDepartement":"71","siren":"217103126","codeEpci":"200040038","codeRegion":"27","codesPostaux":["71620"],"population":248},"geometry":{"type":"Point","coordinates":[4.9982,46.7987]}},{"type":"Feature","properties":{"nom":"Monthelon","code":"71313","codeDepartement":"71","siren":"217103134","codeEpci":"200070530","codeRegion":"27","codesPostaux":["71400"],"population":382},"geometry":{"type":"Point","coordinates":[4.2224,46.9596]}},{"type":"Feature","properties":{"nom":"Montjay","code":"71314","codeDepartement":"71","siren":"217103142","codeEpci":"200042414","codeRegion":"27","codesPostaux":["71310"],"population":201},"geometry":{"type":"Point","coordinates":[5.3,46.8062]}},{"type":"Feature","properties":{"nom":"Mont-lès-Seurre","code":"71315","codeDepartement":"71","siren":"217103159","codeEpci":"200040038","codeRegion":"27","codesPostaux":["71270"],"population":186},"geometry":{"type":"Point","coordinates":[5.1303,46.9494]}},{"type":"Feature","properties":{"nom":"Montmelard","code":"71316","codeDepartement":"71","siren":"217103167","codeEpci":"200071645","codeRegion":"27","codesPostaux":["71520"],"population":367},"geometry":{"type":"Point","coordinates":[4.4112,46.3425]}},{"type":"Feature","properties":{"nom":"Montmort","code":"71317","codeDepartement":"71","siren":"217103175","codeEpci":"200070316","codeRegion":"27","codesPostaux":["71320"],"population":185},"geometry":{"type":"Point","coordinates":[4.095,46.741]}},{"type":"Feature","properties":{"nom":"Montpont-en-Bresse","code":"71318","codeDepartement":"71","siren":"217103183","codeEpci":"200071538","codeRegion":"27","codesPostaux":["71470"],"population":1091},"geometry":{"type":"Point","coordinates":[5.174,46.5417]}},{"type":"Feature","properties":{"nom":"Montret","code":"71319","codeDepartement":"71","siren":"217103191","codeEpci":"200071579","codeRegion":"27","codesPostaux":["71440"],"population":763},"geometry":{"type":"Point","coordinates":[5.1169,46.6825]}},{"type":"Feature","properties":{"nom":"Mont-Saint-Vincent","code":"71320","codeDepartement":"71","siren":"217103209","codeEpci":"247100290","codeRegion":"27","codesPostaux":["71300"],"population":313},"geometry":{"type":"Point","coordinates":[4.4956,46.6418]}},{"type":"Feature","properties":{"nom":"Morey","code":"71321","codeDepartement":"71","siren":"217103217","codeEpci":"247100290","codeRegion":"27","codesPostaux":["71510"],"population":191},"geometry":{"type":"Point","coordinates":[4.5905,46.7906]}},{"type":"Feature","properties":{"nom":"Morlet","code":"71322","codeDepartement":"71","siren":"217103225","codeEpci":"200070530","codeRegion":"27","codesPostaux":["71360"],"population":47},"geometry":{"type":"Point","coordinates":[4.5052,46.9539]}},{"type":"Feature","properties":{"nom":"Mornay","code":"71323","codeDepartement":"71","siren":"217103233","codeEpci":"200071884","codeRegion":"27","codesPostaux":["71220"],"population":137},"geometry":{"type":"Point","coordinates":[4.3805,46.4987]}},{"type":"Feature","properties":{"nom":"Moroges","code":"71324","codeDepartement":"71","siren":"217103241","codeEpci":"247104094","codeRegion":"27","codesPostaux":["71390"],"population":586},"geometry":{"type":"Point","coordinates":[4.6724,46.7509]}},{"type":"Feature","properties":{"nom":"La Motte-Saint-Jean","code":"71325","codeDepartement":"71","siren":"217103258","codeEpci":"200071884","codeRegion":"27","codesPostaux":["71160"],"population":1203},"geometry":{"type":"Point","coordinates":[3.9548,46.5217]}},{"type":"Feature","properties":{"nom":"Mouthier-en-Bresse","code":"71326","codeDepartement":"71","siren":"217103266","codeEpci":"247100647","codeRegion":"27","codesPostaux":["71270"],"population":406},"geometry":{"type":"Point","coordinates":[5.3732,46.8604]}},{"type":"Feature","properties":{"nom":"Mussy-sous-Dun","code":"71327","codeDepartement":"71","siren":"217103274","codeEpci":"200070548","codeRegion":"27","codesPostaux":["71170"],"population":333},"geometry":{"type":"Point","coordinates":[4.335,46.238]}},{"type":"Feature","properties":{"nom":"Nanton","code":"71328","codeDepartement":"71","siren":"217103282","codeEpci":"247103765","codeRegion":"27","codesPostaux":["71240"],"population":643},"geometry":{"type":"Point","coordinates":[4.8117,46.6187]}},{"type":"Feature","properties":{"nom":"Navilly","code":"71329","codeDepartement":"71","siren":"217103290","codeEpci":"200040038","codeRegion":"27","codesPostaux":["71270"],"population":401},"geometry":{"type":"Point","coordinates":[5.1458,46.9249]}},{"type":"Feature","properties":{"nom":"Neuvy-Grandchamp","code":"71330","codeDepartement":"71","siren":"217103308","codeEpci":"200070316","codeRegion":"27","codesPostaux":["71130"],"population":749},"geometry":{"type":"Point","coordinates":[3.9333,46.6003]}},{"type":"Feature","properties":{"nom":"Nochize","code":"71331","codeDepartement":"71","siren":"217103316","codeEpci":"200071884","codeRegion":"27","codesPostaux":["71600"],"population":106},"geometry":{"type":"Point","coordinates":[4.1649,46.401]}},{"type":"Feature","properties":{"nom":"Ormes","code":"71332","codeDepartement":"71","siren":"217103324","codeEpci":"200071538","codeRegion":"27","codesPostaux":["71290"],"population":479},"geometry":{"type":"Point","coordinates":[4.9668,46.6334]}},{"type":"Feature","properties":{"nom":"Oslon","code":"71333","codeDepartement":"71","siren":"217103332","codeEpci":"247100589","codeRegion":"27","codesPostaux":["71380"],"population":1226},"geometry":{"type":"Point","coordinates":[4.9397,46.7769]}},{"type":"Feature","properties":{"nom":"Oudry","code":"71334","codeDepartement":"71","siren":"217103340","codeEpci":"200071884","codeRegion":"27","codesPostaux":["71420"],"population":381},"geometry":{"type":"Point","coordinates":[4.1677,46.5817]}},{"type":"Feature","properties":{"nom":"Ouroux-sous-le-Bois-Sainte-Marie","code":"71335","codeDepartement":"71","siren":"217103357","codeEpci":"200070548","codeRegion":"27","codesPostaux":["71800"],"population":64},"geometry":{"type":"Point","coordinates":[4.3094,46.364]}},{"type":"Feature","properties":{"nom":"Ouroux-sur-Saône","code":"71336","codeDepartement":"71","siren":"217103365","codeEpci":"200071538","codeRegion":"27","codesPostaux":["71370"],"population":3134},"geometry":{"type":"Point","coordinates":[4.9505,46.7249]}},{"type":"Feature","properties":{"nom":"Oyé","code":"71337","codeDepartement":"71","siren":"217103373","codeEpci":"247103864","codeRegion":"27","codesPostaux":["71800"],"population":310},"geometry":{"type":"Point","coordinates":[4.1952,46.3304]}},{"type":"Feature","properties":{"nom":"Ozenay","code":"71338","codeDepartement":"71","siren":"217103381","codeEpci":"200069698","codeRegion":"27","codesPostaux":["71700"],"population":224},"geometry":{"type":"Point","coordinates":[4.8429,46.5339]}},{"type":"Feature","properties":{"nom":"Ozolles","code":"71339","codeDepartement":"71","siren":"217103399","codeEpci":"200071884","codeRegion":"27","codesPostaux":["71120"],"population":377},"geometry":{"type":"Point","coordinates":[4.3622,46.3815]}},{"type":"Feature","properties":{"nom":"Palinges","code":"71340","codeDepartement":"71","siren":"217103407","codeEpci":"200071884","codeRegion":"27","codesPostaux":["71430"],"population":1442},"geometry":{"type":"Point","coordinates":[4.2028,46.5478]}},{"type":"Feature","properties":{"nom":"Palleau","code":"71341","codeDepartement":"71","siren":"217103415","codeEpci":"200040038","codeRegion":"27","codesPostaux":["71350"],"population":261},"geometry":{"type":"Point","coordinates":[5.031,46.9623]}},{"type":"Feature","properties":{"nom":"Paray-le-Monial","code":"71342","codeDepartement":"71","siren":"217103423","codeEpci":"200071884","codeRegion":"27","codesPostaux":["71600"],"population":9239},"geometry":{"type":"Point","coordinates":[4.1115,46.4429]}},{"type":"Feature","properties":{"nom":"Paris-l'Hôpital","code":"71343","codeDepartement":"71","siren":"217103431","codeEpci":"200006682","codeRegion":"27","codesPostaux":["71150"],"population":297},"geometry":{"type":"Point","coordinates":[4.6401,46.9126]}},{"type":"Feature","properties":{"nom":"Passy","code":"71344","codeDepartement":"71","siren":"217103449","codeEpci":"200040293","codeRegion":"27","codesPostaux":["71220"],"population":69},"geometry":{"type":"Point","coordinates":[4.5344,46.5402]}},{"type":"Feature","properties":{"nom":"Péronne","code":"71345","codeDepartement":"71","siren":"217103456","codeEpci":"200070308","codeRegion":"27","codesPostaux":["71260"],"population":668},"geometry":{"type":"Point","coordinates":[4.801,46.4412]}},{"type":"Feature","properties":{"nom":"Perrecy-les-Forges","code":"71346","codeDepartement":"71","siren":"217103464","codeEpci":"247100290","codeRegion":"27","codesPostaux":["71420"],"population":1547},"geometry":{"type":"Point","coordinates":[4.2308,46.6176]}},{"type":"Feature","properties":{"nom":"Perreuil","code":"71347","codeDepartement":"71","siren":"217103472","codeEpci":"247100290","codeRegion":"27","codesPostaux":["71510"],"population":560},"geometry":{"type":"Point","coordinates":[4.5687,46.8219]}},{"type":"Feature","properties":{"nom":"Perrigny-sur-Loire","code":"71348","codeDepartement":"71","siren":"217103480","codeEpci":"200070316","codeRegion":"27","codesPostaux":["71160"],"population":137},"geometry":{"type":"Point","coordinates":[3.8505,46.5432]}},{"type":"Feature","properties":{"nom":"La Petite-Verrière","code":"71349","codeDepartement":"71","siren":"217103498","codeEpci":"200070530","codeRegion":"27","codesPostaux":["71400"],"population":50},"geometry":{"type":"Point","coordinates":[4.1681,47.0454]}},{"type":"Feature","properties":{"nom":"Pierreclos","code":"71350","codeDepartement":"71","siren":"217103506","codeEpci":"200071645","codeRegion":"27","codesPostaux":["71960"],"population":851},"geometry":{"type":"Point","coordinates":[4.6726,46.3345]}},{"type":"Feature","properties":{"nom":"Pierre-de-Bresse","code":"71351","codeDepartement":"71","siren":"217103514","codeEpci":"247100647","codeRegion":"27","codesPostaux":["71270"],"population":1946},"geometry":{"type":"Point","coordinates":[5.2585,46.8851]}},{"type":"Feature","properties":{"nom":"Le Planois","code":"71352","codeDepartement":"71","siren":"217103522","codeEpci":"200042414","codeRegion":"27","codesPostaux":["71330"],"population":84},"geometry":{"type":"Point","coordinates":[5.3206,46.7912]}},{"type":"Feature","properties":{"nom":"Plottes","code":"71353","codeDepartement":"71","siren":"217103530","codeEpci":"200069698","codeRegion":"27","codesPostaux":["71700"],"population":544},"geometry":{"type":"Point","coordinates":[4.8862,46.5351]}},{"type":"Feature","properties":{"nom":"Poisson","code":"71354","codeDepartement":"71","siren":"217103548","codeEpci":"200071884","codeRegion":"27","codesPostaux":["71600"],"population":562},"geometry":{"type":"Point","coordinates":[4.1348,46.3864]}},{"type":"Feature","properties":{"nom":"Pontoux","code":"71355","codeDepartement":"71","siren":"217103555","codeEpci":"200040038","codeRegion":"27","codesPostaux":["71270"],"population":277},"geometry":{"type":"Point","coordinates":[5.1206,46.9115]}},{"type":"Feature","properties":{"nom":"Pouilloux","code":"71356","codeDepartement":"71","siren":"217103563","codeEpci":"247100290","codeRegion":"27","codesPostaux":["71230"],"population":961},"geometry":{"type":"Point","coordinates":[4.3558,46.6016]}},{"type":"Feature","properties":{"nom":"Pourlans","code":"71357","codeDepartement":"71","siren":"217103571","codeEpci":"247100647","codeRegion":"27","codesPostaux":["71270"],"population":218},"geometry":{"type":"Point","coordinates":[5.2364,46.9603]}},{"type":"Feature","properties":{"nom":"Pressy-sous-Dondin","code":"71358","codeDepartement":"71","siren":"217103589","codeEpci":"200040293","codeRegion":"27","codesPostaux":["71220"],"population":104},"geometry":{"type":"Point","coordinates":[4.5036,46.4783]}},{"type":"Feature","properties":{"nom":"Préty","code":"71359","codeDepartement":"71","siren":"217103597","codeEpci":"200069698","codeRegion":"27","codesPostaux":["71290"],"population":579},"geometry":{"type":"Point","coordinates":[4.9544,46.5402]}},{"type":"Feature","properties":{"nom":"Prissé","code":"71360","codeDepartement":"71","siren":"217103605","codeEpci":"200070308","codeRegion":"27","codesPostaux":["71960"],"population":1883},"geometry":{"type":"Point","coordinates":[4.749,46.3262]}},{"type":"Feature","properties":{"nom":"Prizy","code":"71361","codeDepartement":"71","siren":"217103613","codeEpci":"200071884","codeRegion":"27","codesPostaux":["71800"],"population":55},"geometry":{"type":"Point","coordinates":[4.2163,46.3526]}},{"type":"Feature","properties":{"nom":"Pruzilly","code":"71362","codeDepartement":"71","siren":"217103621","codeEpci":"200070308","codeRegion":"27","codesPostaux":["71570"],"population":338},"geometry":{"type":"Point","coordinates":[4.698,46.26]}},{"type":"Feature","properties":{"nom":"Le Puley","code":"71363","codeDepartement":"71","siren":"217103639","codeEpci":"247104094","codeRegion":"27","codesPostaux":["71460"],"population":81},"geometry":{"type":"Point","coordinates":[4.5641,46.6789]}},{"type":"Feature","properties":{"nom":"La Racineuse","code":"71364","codeDepartement":"71","siren":"217103647","codeEpci":"247100647","codeRegion":"27","codesPostaux":["71310"],"population":173},"geometry":{"type":"Point","coordinates":[5.1627,46.8329]}},{"type":"Feature","properties":{"nom":"Rancy","code":"71365","codeDepartement":"71","siren":"217103654","codeEpci":"200071538","codeRegion":"27","codesPostaux":["71290"],"population":612},"geometry":{"type":"Point","coordinates":[5.0837,46.6009]}},{"type":"Feature","properties":{"nom":"Ratenelle","code":"71366","codeDepartement":"71","siren":"217103662","codeEpci":"200071538","codeRegion":"27","codesPostaux":["71290"],"population":374},"geometry":{"type":"Point","coordinates":[5.0003,46.5247]}},{"type":"Feature","properties":{"nom":"Ratte","code":"71367","codeDepartement":"71","siren":"217103670","codeEpci":"200071579","codeRegion":"27","codesPostaux":["71500"],"population":369},"geometry":{"type":"Point","coordinates":[5.3061,46.6398]}},{"type":"Feature","properties":{"nom":"Reclesne","code":"71368","codeDepartement":"71","siren":"217103688","codeEpci":"200070530","codeRegion":"27","codesPostaux":["71540"],"population":292},"geometry":{"type":"Point","coordinates":[4.2848,47.0483]}},{"type":"Feature","properties":{"nom":"Remigny","code":"71369","codeDepartement":"71","siren":"217103696","codeEpci":"247100589","codeRegion":"27","codesPostaux":["71150"],"population":417},"geometry":{"type":"Point","coordinates":[4.7237,46.9102]}},{"type":"Feature","properties":{"nom":"Rigny-sur-Arroux","code":"71370","codeDepartement":"71","siren":"217103704","codeEpci":"200070316","codeRegion":"27","codesPostaux":["71160"],"population":619},"geometry":{"type":"Point","coordinates":[4.0163,46.5437]}},{"type":"Feature","properties":{"nom":"La Roche-Vineuse","code":"71371","codeDepartement":"71","siren":"217103712","codeEpci":"200070308","codeRegion":"27","codesPostaux":["71960"],"population":1572},"geometry":{"type":"Point","coordinates":[4.7488,46.3504]}},{"type":"Feature","properties":{"nom":"Romanèche-Thorins","code":"71372","codeDepartement":"71","siren":"217103720","codeEpci":"200070308","codeRegion":"27","codesPostaux":["71570"],"population":2009},"geometry":{"type":"Point","coordinates":[4.7478,46.192]}},{"type":"Feature","properties":{"nom":"Romenay","code":"71373","codeDepartement":"71","siren":"217103738","codeEpci":"200071538","codeRegion":"27","codesPostaux":["71470"],"population":1731},"geometry":{"type":"Point","coordinates":[5.0886,46.5152]}},{"type":"Feature","properties":{"nom":"Rosey","code":"71374","codeDepartement":"71","siren":"217103746","codeEpci":"247104094","codeRegion":"27","codesPostaux":["71390"],"population":159},"geometry":{"type":"Point","coordinates":[4.7191,46.7408]}},{"type":"Feature","properties":{"nom":"Roussillon-en-Morvan","code":"71376","codeDepartement":"71","siren":"217103761","codeEpci":"200070530","codeRegion":"27","codesPostaux":["71550"],"population":276},"geometry":{"type":"Point","coordinates":[4.0998,47.0213]}},{"type":"Feature","properties":{"nom":"Royer","code":"71377","codeDepartement":"71","siren":"217103779","codeEpci":"200069698","codeRegion":"27","codesPostaux":["71700"],"population":135},"geometry":{"type":"Point","coordinates":[4.8234,46.5566]}},{"type":"Feature","properties":{"nom":"Rully","code":"71378","codeDepartement":"71","siren":"217103787","codeEpci":"247100589","codeRegion":"27","codesPostaux":["71150"],"population":1558},"geometry":{"type":"Point","coordinates":[4.7601,46.871]}},{"type":"Feature","properties":{"nom":"Sagy","code":"71379","codeDepartement":"71","siren":"217103795","codeEpci":"200071579","codeRegion":"27","codesPostaux":["71580"],"population":1241},"geometry":{"type":"Point","coordinates":[5.3239,46.5939]}},{"type":"Feature","properties":{"nom":"Saillenard","code":"71380","codeDepartement":"71","siren":"217103803","codeEpci":"200042414","codeRegion":"27","codesPostaux":["71580"],"population":790},"geometry":{"type":"Point","coordinates":[5.3701,46.6966]}},{"type":"Feature","properties":{"nom":"Sailly","code":"71381","codeDepartement":"71","siren":"217103811","codeEpci":"200040293","codeRegion":"27","codesPostaux":["71250"],"population":71},"geometry":{"type":"Point","coordinates":[4.5628,46.5316]}},{"type":"Feature","properties":{"nom":"Saint-Agnan","code":"71382","codeDepartement":"71","siren":"217103829","codeEpci":"200071884","codeRegion":"27","codesPostaux":["71160"],"population":689},"geometry":{"type":"Point","coordinates":[3.8909,46.5156]}},{"type":"Feature","properties":{"nom":"Saint-Albain","code":"71383","codeDepartement":"71","siren":"217103837","codeEpci":"200069698","codeRegion":"27","codesPostaux":["71260"],"population":545},"geometry":{"type":"Point","coordinates":[4.8645,46.4251]}},{"type":"Feature","properties":{"nom":"Saint-Ambreuil","code":"71384","codeDepartement":"71","siren":"217103845","codeEpci":"247103765","codeRegion":"27","codesPostaux":["71240"],"population":519},"geometry":{"type":"Point","coordinates":[4.82,46.6792]}},{"type":"Feature","properties":{"nom":"Saint-Amour-Bellevue","code":"71385","codeDepartement":"71","siren":"217103852","codeEpci":"200070308","codeRegion":"27","codesPostaux":["71570"],"population":571},"geometry":{"type":"Point","coordinates":[4.735,46.2392]}},{"type":"Feature","properties":{"nom":"Saint-André-en-Bresse","code":"71386","codeDepartement":"71","siren":"217103860","codeEpci":"200071579","codeRegion":"27","codesPostaux":["71440"],"population":117},"geometry":{"type":"Point","coordinates":[5.0837,46.6501]}},{"type":"Feature","properties":{"nom":"Saint-André-le-Désert","code":"71387","codeDepartement":"71","siren":"217103878","codeEpci":"200040293","codeRegion":"27","codesPostaux":["71220"],"population":245},"geometry":{"type":"Point","coordinates":[4.5285,46.5021]}},{"type":"Feature","properties":{"nom":"Saint-Aubin-en-Charollais","code":"71388","codeDepartement":"71","siren":"217103886","codeEpci":"200071884","codeRegion":"27","codesPostaux":["71430"],"population":481},"geometry":{"type":"Point","coordinates":[4.2099,46.5013]}},{"type":"Feature","properties":{"nom":"Saint-Aubin-sur-Loire","code":"71389","codeDepartement":"71","siren":"217103894","codeEpci":"200070316","codeRegion":"27","codesPostaux":["71140"],"population":273},"geometry":{"type":"Point","coordinates":[3.7647,46.5678]}},{"type":"Feature","properties":{"nom":"Saint-Berain-sous-Sanvignes","code":"71390","codeDepartement":"71","siren":"217103902","codeEpci":"247100290","codeRegion":"27","codesPostaux":["71300"],"population":1097},"geometry":{"type":"Point","coordinates":[4.2884,46.722]}},{"type":"Feature","properties":{"nom":"Saint-Bérain-sur-Dheune","code":"71391","codeDepartement":"71","siren":"217103910","codeEpci":"247100589","codeRegion":"27","codesPostaux":["71510"],"population":549},"geometry":{"type":"Point","coordinates":[4.6167,46.819]}},{"type":"Feature","properties":{"nom":"Saint-Boil","code":"71392","codeDepartement":"71","siren":"217103928","codeEpci":"247104094","codeRegion":"27","codesPostaux":["71390"],"population":491},"geometry":{"type":"Point","coordinates":[4.7007,46.6426]}},{"type":"Feature","properties":{"nom":"Saint-Bonnet-de-Cray","code":"71393","codeDepartement":"71","siren":"217103936","codeEpci":"247103864","codeRegion":"27","codesPostaux":["71340"],"population":503},"geometry":{"type":"Point","coordinates":[4.1636,46.2011]}},{"type":"Feature","properties":{"nom":"Saint-Bonnet-de-Joux","code":"71394","codeDepartement":"71","siren":"217103944","codeEpci":"200071884","codeRegion":"27","codesPostaux":["71220"],"population":763},"geometry":{"type":"Point","coordinates":[4.4371,46.4798]}},{"type":"Feature","properties":{"nom":"Saint-Bonnet-de-Vieille-Vigne","code":"71395","codeDepartement":"71","siren":"217103951","codeEpci":"200071884","codeRegion":"27","codesPostaux":["71430"],"population":211},"geometry":{"type":"Point","coordinates":[4.2682,46.5303]}},{"type":"Feature","properties":{"nom":"Saint-Bonnet-en-Bresse","code":"71396","codeDepartement":"71","siren":"217103969","codeEpci":"247100647","codeRegion":"27","codesPostaux":["71310"],"population":483},"geometry":{"type":"Point","coordinates":[5.1806,46.8578]}},{"type":"Feature","properties":{"nom":"Sainte-Cécile","code":"71397","codeDepartement":"71","siren":"217103977","codeEpci":"200040293","codeRegion":"27","codesPostaux":["71250"],"population":279},"geometry":{"type":"Point","coordinates":[4.6297,46.3846]}},{"type":"Feature","properties":{"nom":"Saint-Christophe-en-Bresse","code":"71398","codeDepartement":"71","siren":"217103985","codeEpci":"200071538","codeRegion":"27","codesPostaux":["71370"],"population":1038},"geometry":{"type":"Point","coordinates":[4.9928,46.7465]}},{"type":"Feature","properties":{"nom":"Saint-Christophe-en-Brionnais","code":"71399","codeDepartement":"71","siren":"217103993","codeEpci":"247103864","codeRegion":"27","codesPostaux":["71800"],"population":524},"geometry":{"type":"Point","coordinates":[4.1941,46.2838]}},{"type":"Feature","properties":{"nom":"Saint-Clément-sur-Guye","code":"71400","codeDepartement":"71","siren":"217104009","codeEpci":"200040293","codeRegion":"27","codesPostaux":["71460"],"population":136},"geometry":{"type":"Point","coordinates":[4.5877,46.6189]}},{"type":"Feature","properties":{"nom":"Sainte-Croix-en-Bresse","code":"71401","codeDepartement":"71","siren":"217104017","codeEpci":"200071579","codeRegion":"27","codesPostaux":["71470"],"population":648},"geometry":{"type":"Point","coordinates":[5.2389,46.563]}},{"type":"Feature","properties":{"nom":"Saint-Cyr","code":"71402","codeDepartement":"71","siren":"217104025","codeEpci":"247103765","codeRegion":"27","codesPostaux":["71240"],"population":760},"geometry":{"type":"Point","coordinates":[4.9031,46.6797]}},{"type":"Feature","properties":{"nom":"Saint-Denis-de-Vaux","code":"71403","codeDepartement":"71","siren":"217104033","codeEpci":"247100589","codeRegion":"27","codesPostaux":["71640"],"population":270},"geometry":{"type":"Point","coordinates":[4.7007,46.793]}},{"type":"Feature","properties":{"nom":"Saint-Désert","code":"71404","codeDepartement":"71","siren":"217104041","codeEpci":"247100589","codeRegion":"27","codesPostaux":["71390"],"population":902},"geometry":{"type":"Point","coordinates":[4.715,46.7569]}},{"type":"Feature","properties":{"nom":"Saint-Didier-en-Bresse","code":"71405","codeDepartement":"71","siren":"217104058","codeEpci":"200040038","codeRegion":"27","codesPostaux":["71620"],"population":188},"geometry":{"type":"Point","coordinates":[5.1056,46.8509]}},{"type":"Feature","properties":{"nom":"Saint-Didier-en-Brionnais","code":"71406","codeDepartement":"71","siren":"217104066","codeEpci":"247103864","codeRegion":"27","codesPostaux":["71110"],"population":123},"geometry":{"type":"Point","coordinates":[4.1253,46.3389]}},{"type":"Feature","properties":{"nom":"Saint-Didier-sur-Arroux","code":"71407","codeDepartement":"71","siren":"217104074","codeEpci":"200070530","codeRegion":"27","codesPostaux":["71190"],"population":214},"geometry":{"type":"Point","coordinates":[4.1023,46.8346]}},{"type":"Feature","properties":{"nom":"Saint-Edmond","code":"71408","codeDepartement":"71","siren":"217104082","codeEpci":"200070548","codeRegion":"27","codesPostaux":["71740"],"population":439},"geometry":{"type":"Point","coordinates":[4.2104,46.203]}},